[
{
        "iata": "LTQ",
        "lon": "1.627071",
        "iso": "FR",
        "status": 1,
        "name": null,
        "continent": "EU",
        "type": "airport",
        "lat": "50.514774",
        "size": "medium"
    },
    {
        "iata": "XVS",
        "iso": "FR",
        "status": 1,
        "name": "Valenciennes-Denain Airport",
        "continent": "EU",
        "type": "airport",
        "size": "medium"
    },
    {
        "iata": "QAM",
        "iso": "FR",
        "status": 1,
        "name": "Amiens-Glisy Airport",
        "continent": "EU",
        "type": "airport",
        "size": "medium"
    },
    {
        "iata": "AGF",
        "lon": "0.598611",
        "iso": "FR",
        "status": 1,
        "name": "Agen-La Garenne Airport",
        "continent": "EU",
        "type": "airport",
        "lat": "44.17361",
        "size": "medium"
    },
    {
        "iata": "BOD",
        "lon": "-0.70217",
        "iso": "FR",
        "status": 1,
        "name": null,
        "continent": "EU",
        "type": "airport",
        "lat": "44.83102",
        "size": "large"
    },
    {
        "iata": "EGC",
        "lon": "0.483333",
        "iso": "FR",
        "status": 1,
        "name": null,
        "continent": "EU",
        "type": "airport",
        "lat": "44.85",
        "size": "medium"
    },
    {
        "iata": "CNG",
        "lon": "-0.333333",
        "iso": "FR",
        "status": 1,
        "name": null,
        "continent": "EU",
        "type": "airport",
        "lat": "45.683334",
        "size": "medium"
    },
    {
        "iata": "LRH",
        "lon": "-1.185833",
        "iso": "FR",
        "status": 1,
        "name": null,
        "continent": "EU",
        "type": "airport",
        "lat": "46.180557",
        "size": "medium"
    },
    {
        "iata": "PIS",
        "lon": "0.306389",
        "iso": "FR",
        "status": 1,
        "name": "Poitiers-Biard Airport",
        "continent": "EU",
        "type": "airport",
        "lat": "46.58611",
        "size": "medium"
    },
    {
        "iata": "MCU",
        "lon": "2.6",
        "iso": "FR",
        "status": 1,
        "name": null,
        "continent": "EU",
        "type": "airport",
        "lat": "46.35",
        "size": "medium"
    },
    {
        "iata": "LIG",
        "lon": "1.176245",
        "iso": "FR",
        "status": 1,
        "name": "Limoges Airport",
        "continent": "EU",
        "type": "airport",
        "lat": "45.86218",
        "size": "medium"
    },
    {
        "iata": "XMJ",
        "iso": "FR",
        "status": 1,
        "name": "Mont-de-Marsan (BA 118) Air Base",
        "continent": "EU",
        "type": "airport",
        "size": "medium"
    },
    {
        "iata": "NIT",
        "lon": "-0.45",
        "iso": "FR",
        "status": 1,
        "name": null,
        "continent": "EU",
        "type": "airport",
        "lat": "46.316666",
        "size": "medium"
    },
    {
        "iata": "TLS",
        "lon": "1.374321",
        "iso": "FR",
        "status": 1,
        "name": "Toulouse-Blagnac Airport",
        "continent": "EU",
        "type": "airport",
        "lat": "43.63007",
        "size": "large"
    },
    {
        "iata": "PUF",
        "lon": "-0.413573",
        "iso": "FR",
        "status": 1,
        "name": null,
        "continent": "EU",
        "type": "airport",
        "lat": "43.382347",
        "size": "medium"
    },
    {
        "iata": "LDE",
        "lon": "0.003368",
        "iso": "FR",
        "status": 1,
        "name": null,
        "continent": "EU",
        "type": "airport",
        "lat": "43.18651",
        "size": "medium"
    },
    {
        "iata": "ANG",
        "lon": "0.216667",
        "iso": "FR",
        "status": 1,
        "name": null,
        "continent": "EU",
        "type": "airport",
        "lat": "45.733334",
        "size": "medium"
    },
    {
        "iata": "BVE",
        "lon": "1.533333",
        "iso": "FR",
        "status": 1,
        "name": "Brive-La Roche Airport",
        "continent": "EU",
        "type": "airport",
        "lat": "45.166668",
        "size": "large"
    },
    {
        "iata": "PGX",
        "lon": "0.716667",
        "iso": "FR",
        "status": 1,
        "name": null,
        "continent": "EU",
        "type": "airport",
        "lat": "45.183334",
        "size": "medium"
    },
    {
        "iata": "XDA",
        "iso": "FR",
        "status": 1,
        "name": "Dax Seyresse Airport",
        "continent": "EU",
        "type": "airport",
        "size": "small"
    },
    {
        "iata": "BIQ",
        "lon": "-1.531242",
        "iso": "FR",
        "status": 1,
        "name": "Biarritz-Anglet-Bayonne Airport",
        "continent": "EU",
        "type": "airport",
        "lat": "43.472416",
        "size": "medium"
    },
    {
        "iata": "XCX",
        "iso": "FR",
        "status": 1,
        "name": null,
        "continent": "EU",
        "type": "airport",
        "size": "small"
    },
    {
        "iata": "ZAO",
        "lon": "1.45",
        "iso": "FR",
        "status": 1,
        "name": "Cahors-Lalbenque Airport",
        "continent": "EU",
        "type": "airport",
        "lat": "44.45",
        "size": "medium"
    },
    {
        "iata": "XGT",
        "iso": "FR",
        "status": 1,
        "name": null,
        "continent": "EU",
        "type": "airport",
        "size": "small"
    },
    {
        "iata": "XAC",
        "iso": "FR",
        "status": 1,
        "name": "Arcachon-La Teste-de-Buch Airport",
        "continent": "EU",
        "type": "airport",
        "size": "medium"
    },
    {
        "iata": "LBI",
        "lon": "2.15",
        "iso": "FR",
        "status": 1,
        "name": null,
        "continent": "EU",
        "type": "airport",
        "lat": "43.933334",
        "size": "medium"
    },
    {
        "iata": "DCM",
        "lon": "2.284167",
        "iso": "FR",
        "status": 1,
        "name": "Castres-Mazamet Airport",
        "continent": "EU",
        "type": "airport",
        "lat": "43.555832",
        "size": "medium"
    },
    {
        "iata": "RDZ",
        "lon": "2.483866",
        "iso": "FR",
        "status": 1,
        "name": "Rodez-Marcillac Airport",
        "continent": "EU",
        "type": "airport",
        "lat": "44.410595",
        "size": "medium"
    },
    {
        "iata": "RYN",
        "lon": "-1.016667",
        "iso": "FR",
        "status": 1,
        "name": null,
        "continent": "EU",
        "type": "airport",
        "lat": "45.61667",
        "size": "medium"
    },
    {
        "iata": "XMW",
        "iso": "FR",
        "status": 1,
        "name": "Montauban Airport",
        "continent": "EU",
        "type": "airport",
        "size": "medium"
    },
    {
        "iata": "XLR",
        "iso": "FR",
        "status": 1,
        "name": "Libourne-Artigues-de-Lussac Airport",
        "continent": "EU",
        "type": "airport",
        "size": "medium"
    },
    {
        "iata": "RCO",
        "lon": "-0.980556",
        "iso": "FR",
        "status": 1,
        "name": "Rochefort-Saint-Agnant (BA 721) Airport",
        "continent": "EU",
        "type": "airport",
        "lat": "45.890556",
        "size": "medium"
    },
    {
        "iata": "XSL",
        "iso": "FR",
        "status": 1,
        "name": "Sarlat Domme Airport",
        "continent": "EU",
        "type": "airport",
        "size": "small"
    },
    {
        "iata": "XTB",
        "iso": "FR",
        "status": 1,
        "name": null,
        "continent": "EU",
        "type": "airport",
        "size": "small"
    },
    {
        "iata": "IDY",
        "lon": "-2.388694",
        "iso": "FR",
        "status": 1,
        "name": null,
        "continent": "EU",
        "type": "airport",
        "lat": "46.71787",
        "size": "medium"
    },
    {
        "iata": "CMR",
        "lon": "7.366667",
        "iso": "FR",
        "status": 1,
        "name": "Colmar-Houssen Airport",
        "continent": "EU",
        "type": "airport",
        "lat": "48.083332",
        "size": "medium"
    },
    {
        "iata": "XBV",
        "iso": "FR",
        "status": 1,
        "name": "Beaune-Challanges Airport",
        "continent": "EU",
        "type": "airport",
        "size": "medium"
    },
    {
        "iata": "DLE",
        "lon": "5.428719",
        "iso": "FR",
        "status": 1,
        "name": "Dole-Tavaux Airport",
        "continent": "EU",
        "type": "airport",
        "lat": "47.038254",
        "size": "medium"
    },
    {
        "iata": "XVN",
        "iso": "FR",
        "status": 1,
        "name": "Verdun-Le Rozelier Airport",
        "continent": "EU",
        "type": "airport",
        "size": "medium"
    },
    {
        "iata": "MVV",
        "lon": "6.65",
        "iso": "FR",
        "status": 1,
        "name": null,
        "continent": "EU",
        "type": "airport",
        "lat": "45.816666",
        "size": "small"
    },
    {
        "iata": "OBS",
        "lon": "4.7",
        "iso": "FR",
        "status": 1,
        "name": null,
        "continent": "EU",
        "type": "airport",
        "lat": "44.666668",
        "size": "medium"
    },
    {
        "iata": "LPY",
        "lon": "3.766667",
        "iso": "FR",
        "status": 1,
        "name": "Le Puy-Loudes Airport",
        "continent": "EU",
        "type": "airport",
        "lat": "45.083332",
        "size": "medium"
    },
    {
        "iata": "AHZ",
        "lon": "6.083333",
        "iso": "FR",
        "status": 1,
        "name": "L'alpe D'huez Airport",
        "continent": "EU",
        "type": "airport",
        "lat": "45.083332",
        "size": "small"
    },
    {
        "iata": "ETZ",
        "lon": "6.243003",
        "iso": "FR",
        "status": 1,
        "name": "Metz-Nancy-Lorraine Airport",
        "continent": "EU",
        "type": "airport",
        "lat": "48.98165",
        "size": "medium"
    },
    {
        "iata": "ANE",
        "lon": "-0.55",
        "iso": "FR",
        "status": 1,
        "name": "Angers-Loire Airport",
        "continent": "EU",
        "type": "airport",
        "lat": "47.466667",
        "size": "medium"
    },
    {
        "iata": "BIA",
        "lon": "9.480124",
        "iso": "FR",
        "status": 1,
        "name": "Bastia-Poretta Airport",
        "continent": "EU",
        "type": "airport",
        "lat": "42.547615",
        "size": "medium"
    },
    {
        "iata": "CLY",
        "lon": "8.791667",
        "iso": "FR",
        "status": 1,
        "name": "Calvi-Sainte-Catherine Airport",
        "continent": "EU",
        "type": "airport",
        "lat": "42.52778",
        "size": "medium"
    },
    {
        "iata": "FSC",
        "lon": "9.098223",
        "iso": "FR",
        "status": 1,
        "name": "Figari Sud-Corse Airport",
        "continent": "EU",
        "type": "airport",
        "lat": "41.498634",
        "size": "medium"
    },
    {
        "iata": "AJA",
        "lon": "8.794013",
        "iso": "FR",
        "status": 1,
        "name": null,
        "continent": "EU",
        "type": "airport",
        "lat": "41.91987",
        "size": "medium"
    },
    {
        "iata": "PRP",
        "lon": "8.9",
        "iso": "FR",
        "status": 1,
        "name": "Propriano Airport",
        "continent": "EU",
        "type": "airport",
        "lat": "41.666668",
        "size": "small"
    },
    {
        "iata": "SOZ",
        "lon": "9.383333",
        "iso": "FR",
        "status": 1,
        "name": "Solenzara (BA 126) Air Base",
        "continent": "EU",
        "type": "airport",
        "lat": "41.88333",
        "size": "medium"
    },
    {
        "iata": "MFX",
        "lon": "6.566667",
        "iso": "FR",
        "status": 1,
        "name": null,
        "continent": "EU",
        "type": "airport",
        "lat": "45.416668",
        "size": "small"
    },
    {
        "iata": "AUF",
        "lon": "3.5",
        "iso": "FR",
        "status": 1,
        "name": "Auxerre-Branches Airport",
        "continent": "EU",
        "type": "airport",
        "lat": "47.85",
        "size": "medium"
    },
    {
        "iata": "CMF",
        "lon": "5.88437",
        "iso": "FR",
        "status": 1,
        "name": null,
        "continent": "EU",
        "type": "airport",
        "lat": "45.637993",
        "size": "medium"
    },
    {
        "iata": "CFE",
        "lon": "3.163893",
        "iso": "FR",
        "status": 1,
        "name": "Clermont-Ferrand Auvergne Airport",
        "continent": "EU",
        "type": "airport",
        "lat": "45.78032",
        "size": "medium"
    },
    {
        "iata": "BOU",
        "lon": "2.416667",
        "iso": "FR",
        "status": 1,
        "name": "Bourges Airport",
        "continent": "EU",
        "type": "airport",
        "lat": "47.15",
        "size": "medium"
    },
    {
        "iata": "QNJ",
        "iso": "FR",
        "status": 1,
        "name": "Annemasse Airport",
        "continent": "EU",
        "type": "airport",
        "size": "medium"
    },
    {
        "iata": "CVF",
        "lon": "6.634722",
        "iso": "FR",
        "status": 1,
        "name": "Courchevel Airport",
        "continent": "EU",
        "type": "airport",
        "lat": "45.396667",
        "size": "small"
    },
    {
        "iata": "LYS",
        "lon": "5.080334",
        "iso": "FR",
        "status": 1,
        "name": null,
        "continent": "EU",
        "type": "airport",
        "lat": "45.721424",
        "size": "medium"
    },
    {
        "iata": "QNX",
        "iso": "FR",
        "status": 1,
        "name": null,
        "continent": "EU",
        "type": "airport",
        "size": "medium"
    },
    {
        "iata": "SYT",
        "lon": "4.033333",
        "iso": "FR",
        "status": 1,
        "name": "Saint-Yan Airport",
        "continent": "EU",
        "type": "airport",
        "lat": "46.4",
        "size": "medium"
    },
    {
        "iata": "RNE",
        "lon": "4.000833",
        "iso": "FR",
        "status": 1,
        "name": "Roanne-Renaison Airport",
        "continent": "EU",
        "type": "airport",
        "lat": "46.053333",
        "size": "medium"
    },
    {
        "iata": "NCY",
        "lon": "6.100833",
        "iso": "FR",
        "status": 1,
        "name": "Annecy-Haute-Savoie-Mont Blanc Airport",
        "continent": "EU",
        "type": "airport",
        "lat": "45.930557",
        "size": "medium"
    },
    {
        "iata": "XMK",
        "iso": "FR",
        "status": 1,
        "name": null,
        "continent": "EU",
        "type": "airport",
        "size": "small"
    },
    {
        "iata": "GNB",
        "lon": "5.332019",
        "iso": "FR",
        "status": 1,
        "name": null,
        "continent": "EU",
        "type": "airport",
        "lat": "45.359833",
        "size": "medium"
    },
    {
        "iata": "MCU",
        "lon": "2.6",
        "iso": "FR",
        "status": 1,
        "name": null,
        "continent": "EU",
        "type": "airport",
        "lat": "46.35",
        "size": "small"
    },
    {
        "iata": "VAF",
        "lon": "4.970278",
        "iso": "FR",
        "status": 1,
        "name": "Valence-Chabeuil Airport",
        "continent": "EU",
        "type": "airport",
        "lat": "44.920277",
        "size": "medium"
    },
    {
        "iata": "VHY",
        "lon": "3.409722",
        "iso": "FR",
        "status": 1,
        "name": "Vichy-Charmeil Airport",
        "continent": "EU",
        "type": "airport",
        "lat": "46.165558",
        "size": "medium"
    },
    {
        "iata": "AUR",
        "lon": "2.418056",
        "iso": "FR",
        "status": 1,
        "name": "Aurillac Airport",
        "continent": "EU",
        "type": "airport",
        "lat": "44.8975",
        "size": "medium"
    },
    {
        "iata": "CHR",
        "lon": "1.728128",
        "iso": "FR",
        "status": 1,
        "name": null,
        "continent": "EU",
        "type": "airport",
        "lat": "46.861954",
        "size": "medium"
    },
    {
        "iata": "LYN",
        "lon": "4.943333",
        "iso": "FR",
        "status": 1,
        "name": "Lyon-Bron Airport",
        "continent": "EU",
        "type": "airport",
        "lat": "45.73083",
        "size": "medium"
    },
    {
        "iata": "CEQ",
        "lon": "6.954167",
        "iso": "FR",
        "status": 1,
        "name": "Cannes-Mandelieu Airport",
        "continent": "EU",
        "type": "airport",
        "lat": "43.54639",
        "size": "medium"
    },
    {
        "iata": "EBU",
        "lon": "4.296944",
        "iso": "FR",
        "status": 1,
        "name": null,
        "continent": "EU",
        "type": "airport",
        "lat": "45.54139",
        "size": "medium"
    },
    {
        "iata": "QIE",
        "lon": "85.53333",
        "iso": "FR",
        "status": 1,
        "name": null,
        "continent": "EU",
        "type": "airport",
        "lat": "38.13333",
        "size": "medium"
    },
    {
        "iata": "CCF",
        "lon": "2.316667",
        "iso": "FR",
        "status": 1,
        "name": "Carcassonne Airport",
        "continent": "EU",
        "type": "airport",
        "lat": "43.216667",
        "size": "medium"
    },
    {
        "iata": "MRS",
        "lon": "5.222137",
        "iso": "FR",
        "status": 1,
        "name": "Marseille Provence Airport",
        "continent": "EU",
        "type": "airport",
        "lat": "43.44178",
        "size": "large"
    },
    {
        "iata": "NCE",
        "lon": "7.205232",
        "iso": "FR",
        "status": 1,
        "name": null,
        "continent": "EU",
        "type": "airport",
        "lat": "43.66049",
        "size": "large"
    },
    {
        "iata": "XOG",
        "iso": "FR",
        "status": 1,
        "name": "Orange-Caritat (BA 115) Air Base",
        "continent": "EU",
        "type": "airport",
        "size": "medium"
    },
    {
        "iata": "PGF",
        "lon": "2.868183",
        "iso": "FR",
        "status": 1,
        "name": null,
        "continent": "EU",
        "type": "airport",
        "lat": "42.741016",
        "size": "medium"
    },
    {
        "iata": "CTT",
        "lon": "5.783333",
        "iso": "FR",
        "status": 1,
        "name": "Le Castellet Airport",
        "continent": "EU",
        "type": "airport",
        "lat": "43.25",
        "size": "medium"
    },
    {
        "iata": "BAE",
        "lon": "6.666667",
        "iso": "FR",
        "status": 1,
        "name": "Barcelonnette - Saint-Pons Airport",
        "continent": "EU",
        "type": "airport",
        "lat": "44.38333",
        "size": "small"
    },
    {
        "iata": "XAS",
        "iso": "FR",
        "status": 1,
        "name": null,
        "continent": "EU",
        "type": "airport",
        "size": "medium"
    },
    {
        "iata": "MPL",
        "lon": "3.959174",
        "iso": "FR",
        "status": 1,
        "name": null,
        "continent": "EU",
        "type": "airport",
        "lat": "43.57843",
        "size": "medium"
    },
    {
        "iata": "BZR",
        "lon": "3.354444",
        "iso": "FR",
        "status": 1,
        "name": null,
        "continent": "EU",
        "type": "airport",
        "lat": "43.324165",
        "size": "medium"
    },
    {
        "iata": "AVN",
        "lon": "4.9",
        "iso": "FR",
        "status": 1,
        "name": "Avignon-Caumont Airport",
        "continent": "EU",
        "type": "airport",
        "lat": "43.9",
        "size": "medium"
    },
    {
        "iata": "GAT",
        "lon": "6.083333",
        "iso": "FR",
        "status": 1,
        "name": "Gap - Tallard Airport",
        "continent": "EU",
        "type": "airport",
        "lat": "44.55",
        "size": "small"
    },
    {
        "iata": "MEN",
        "lon": "3.533333",
        "iso": "FR",
        "status": 1,
        "name": "Mende-Brenoux Airport",
        "continent": "EU",
        "type": "airport",
        "lat": "44.5",
        "size": "medium"
    },
    {
        "iata": "SCP",
        "lon": "0.616667",
        "iso": "FR",
        "status": 1,
        "name": null,
        "continent": "EU",
        "type": "airport",
        "lat": "45.416668",
        "size": "small"
    },
    {
        "iata": "BVA",
        "lon": "2.110815",
        "iso": "FR",
        "status": 1,
        "name": null,
        "continent": "EU",
        "type": "airport",
        "lat": "49.459488",
        "size": "medium"
    },
    {
        "iata": "XSU",
        "iso": "FR",
        "status": 1,
        "name": "Saumur-Saint-Florent Airport",
        "continent": "EU",
        "type": "airport",
        "size": "medium"
    },
    {
        "iata": "EVX",
        "lon": "1.15",
        "iso": "FR",
        "status": 1,
        "name": null,
        "continent": "EU",
        "type": "airport",
        "lat": "49.016666",
        "size": "medium"
    },
    {
        "iata": "XAN",
        "iso": "FR",
        "status": 1,
        "name": null,
        "continent": "EU",
        "type": "airport",
        "size": "small"
    },
    {
        "iata": "LEH",
        "lon": "0.088611",
        "iso": "FR",
        "status": 1,
        "name": "Le Havre Octeville Airport",
        "continent": "EU",
        "type": "airport",
        "lat": "49.53889",
        "size": "medium"
    },
    {
        "iata": "XAB",
        "iso": "FR",
        "status": 1,
        "name": "Abbeville-Buigny-Saint-Maclou Airport",
        "continent": "EU",
        "type": "airport",
        "size": "medium"
    },
    {
        "iata": "ORE",
        "lon": "1.9",
        "iso": "FR",
        "status": 1,
        "name": null,
        "continent": "EU",
        "type": "airport",
        "lat": "47.916668",
        "size": "medium"
    },
    {
        "iata": "XCR",
        "lon": "4.201111",
        "iso": "FR",
        "status": 1,
        "name": null,
        "continent": "EU",
        "type": "airport",
        "lat": "48.767776",
        "size": "medium"
    },
    {
        "iata": "LSO",
        "lon": "-1.783333",
        "iso": "FR",
        "status": 1,
        "name": "Les Sables-d'Olonne Talmont Airport",
        "continent": "EU",
        "type": "airport",
        "lat": "46.5",
        "size": "small"
    },
    {
        "iata": "URO",
        "lon": "1.1875",
        "iso": "FR",
        "status": 1,
        "name": "Rouen Airport",
        "continent": "EU",
        "type": "airport",
        "lat": "49.38861",
        "size": "medium"
    },
    {
        "iata": "XBQ",
        "iso": "FR",
        "status": 1,
        "name": "Blois-Le Breuil Airport",
        "continent": "EU",
        "type": "airport",
        "size": "medium"
    },
    {
        "iata": "QTJ",
        "iso": "FR",
        "status": 1,
        "name": "Chartres Champhol Airport",
        "continent": "EU",
        "type": "airport",
        "size": "small"
    },
    {
        "iata": "TUF",
        "lon": "0.726584",
        "iso": "FR",
        "status": 1,
        "name": "Tours-Val-de-Loire Airport",
        "continent": "EU",
        "type": "airport",
        "lat": "47.432236",
        "size": "large"
    },
    {
        "iata": "CET",
        "lon": "-0.866667",
        "iso": "FR",
        "status": 1,
        "name": "Cholet Le Pontreau Airport",
        "continent": "EU",
        "type": "airport",
        "lat": "47.066666",
        "size": "medium"
    },
    {
        "iata": "LVA",
        "lon": "-0.766667",
        "iso": "FR",
        "status": 1,
        "name": "Laval-Entrammes Airport",
        "continent": "EU",
        "type": "airport",
        "lat": "48.066666",
        "size": "medium"
    },
    {
        "iata": "LBG",
        "lon": "2.4425",
        "iso": "FR",
        "status": 1,
        "name": "Paris-Le Bourget Airport",
        "continent": "EU",
        "type": "airport",
        "lat": "48.971943",
        "size": "medium"
    },
    {
        "iata": "CSF",
        "lon": "2.483333",
        "iso": "FR",
        "status": 1,
        "name": "Creil Air Base",
        "continent": "EU",
        "type": "airport",
        "lat": "49.25",
        "size": "medium"
    },
    {
        "iata": "CDG",
        "lon": "2.567023",
        "iso": "FR",
        "status": 1,
        "name": "Charles de Gaulle International Airport",
        "continent": "EU",
        "type": "airport",
        "lat": "49.003197",
        "size": "large"
    },
    {
        "iata": "JDP",
        "iso": "FR",
        "status": 1,
        "name": "Paris Issy-les-Moulineaux Heliport",
        "continent": "EU",
        "type": "heliport",
        "size": null
    },
    {
        "iata": "TNF",
        "lon": "2.113056",
        "iso": "FR",
        "status": 1,
        "name": "Toussus-le-Noble Airport",
        "continent": "EU",
        "type": "airport",
        "lat": "48.75083",
        "size": "medium"
    },
    {
        "iata": "ORY",
        "lon": "2.3597",
        "iso": "FR",
        "status": 1,
        "name": "Paris-Orly Airport",
        "continent": "EU",
        "type": "airport",
        "lat": "48.728283",
        "size": "large"
    },
    {
        "iata": "POX",
        "lon": "2.1",
        "iso": "FR",
        "status": 1,
        "name": "Pontoise - Cormeilles-en-Vexin Airport",
        "continent": "EU",
        "type": "airport",
        "lat": "49.05",
        "size": "medium"
    },
    {
        "iata": "VIY",
        "lon": "2.191667",
        "iso": "FR",
        "status": 1,
        "name": null,
        "continent": "EU",
        "type": "airport",
        "lat": "48.774166",
        "size": "medium"
    },
    {
        "iata": "QYR",
        "iso": "FR",
        "status": 1,
        "name": "Troyes-Barberey Airport",
        "continent": "EU",
        "type": "airport",
        "size": "medium"
    },
    {
        "iata": "NVS",
        "lon": "3.15",
        "iso": "FR",
        "status": 1,
        "name": "Nevers-Fourchambault Airport",
        "continent": "EU",
        "type": "airport",
        "lat": "47.0",
        "size": "medium"
    },
    {
        "iata": "XCB",
        "iso": "FR",
        "status": 1,
        "name": null,
        "continent": "EU",
        "type": "airport",
        "size": "medium"
    },
    {
        "iata": "XME",
        "iso": "FR",
        "status": 1,
        "name": null,
        "continent": "EU",
        "type": "airport",
        "size": "medium"
    },
    {
        "iata": "LIL",
        "lon": "3.106067",
        "iso": "FR",
        "status": 1,
        "name": "Lille-Lesquin Airport",
        "continent": "EU",
        "type": "airport",
        "lat": "50.57205",
        "size": "medium"
    },
    {
        "iata": "HZB",
        "lon": "2.65",
        "iso": "FR",
        "status": 1,
        "name": "Merville-Calonne Airport",
        "continent": "EU",
        "type": "airport",
        "lat": "50.61667",
        "size": "medium"
    },
    {
        "iata": "XCZ",
        "iso": "FR",
        "status": 1,
        "name": null,
        "continent": "EU",
        "type": "airport",
        "size": "medium"
    },
    {
        "iata": "XVO",
        "iso": "FR",
        "status": 1,
        "name": "Vesoul-Frotey Airport",
        "continent": "EU",
        "type": "airport",
        "size": "medium"
    },
    {
        "iata": "BES",
        "lon": "-4.415827",
        "iso": "FR",
        "status": 1,
        "name": "Brest Bretagne Airport",
        "continent": "EU",
        "type": "airport",
        "lat": "48.445374",
        "size": "medium"
    },
    {
        "iata": "CER",
        "lon": "-1.465278",
        "iso": "FR",
        "status": 1,
        "name": "Cherbourg-Maupertus Airport",
        "continent": "EU",
        "type": "airport",
        "lat": "49.65111",
        "size": "medium"
    },
    {
        "iata": "DNR",
        "lon": "-2.083611",
        "iso": "FR",
        "status": 1,
        "name": "Dinard-Pleurtuit-Saint-Malo Airport",
        "continent": "EU",
        "type": "airport",
        "lat": "48.587776",
        "size": "medium"
    },
    {
        "iata": "LBY",
        "lon": "-2.345833",
        "iso": "FR",
        "status": 1,
        "name": "La Baule-Escoublac Airport",
        "continent": "EU",
        "type": "airport",
        "lat": "47.28889",
        "size": "medium"
    },
    {
        "iata": "GFR",
        "lon": "-1.566667",
        "iso": "FR",
        "status": 1,
        "name": "Granville Airport",
        "continent": "EU",
        "type": "airport",
        "lat": "48.88333",
        "size": "medium"
    },
    {
        "iata": "DOL",
        "lon": "0.164167",
        "iso": "FR",
        "status": 1,
        "name": "Deauville-Saint-Gatien Airport",
        "continent": "EU",
        "type": "airport",
        "lat": "49.362778",
        "size": "medium"
    },
    {
        "iata": "LRT",
        "lon": "-3.436394",
        "iso": "FR",
        "status": 1,
        "name": "Lorient South Brittany (Bretagne Sud) Airport",
        "continent": "EU",
        "type": "airport",
        "lat": "47.75374",
        "size": "medium"
    },
    {
        "iata": "EDM",
        "lon": "-1.383333",
        "iso": "FR",
        "status": 1,
        "name": "La Roche-sur-Yon Airport",
        "continent": "EU",
        "type": "airport",
        "lat": "46.7",
        "size": "medium"
    },
    {
        "iata": "LDV",
        "lon": "-4.1",
        "iso": "FR",
        "status": 1,
        "name": "Landivisiau Air Base",
        "continent": "EU",
        "type": "airport",
        "lat": "48.5",
        "size": "medium"
    },
    {
        "iata": "CFR",
        "lon": "-0.459276",
        "iso": "FR",
        "status": 1,
        "name": "Caen-Carpiquet Airport",
        "continent": "EU",
        "type": "airport",
        "lat": "49.183437",
        "size": "medium"
    },
    {
        "iata": "LME",
        "lon": "1.25",
        "iso": "FR",
        "status": 1,
        "name": "Le Mans-Arnage Airport",
        "continent": "EU",
        "type": "airport",
        "lat": "48.0",
        "size": "medium"
    },
    {
        "iata": "RNS",
        "lon": "-1.726249",
        "iso": "FR",
        "status": 1,
        "name": "Rennes-Saint-Jacques Airport",
        "continent": "EU",
        "type": "airport",
        "lat": "48.068066",
        "size": "medium"
    },
    {
        "iata": "LAI",
        "lon": "-3.481944",
        "iso": "FR",
        "status": 1,
        "name": null,
        "continent": "EU",
        "type": "airport",
        "lat": "48.754166",
        "size": "medium"
    },
    {
        "iata": "UIP",
        "lon": "-4.170833",
        "iso": "FR",
        "status": 1,
        "name": "Quimper-Cornouaille Airport",
        "continent": "EU",
        "type": "airport",
        "lat": "47.974445",
        "size": "medium"
    },
    {
        "iata": "NTE",
        "lon": "-1.601402",
        "iso": "FR",
        "status": 1,
        "name": "Nantes Atlantique Airport",
        "continent": "EU",
        "type": "airport",
        "lat": "47.157623",
        "size": "medium"
    },
    {
        "iata": "SBK",
        "lon": "-2.808889",
        "iso": "FR",
        "status": 1,
        "name": "Saint-Brieuc-Armor Airport",
        "continent": "EU",
        "type": "airport",
        "lat": "48.513058",
        "size": "medium"
    },
    {
        "iata": "MXN",
        "lon": "-3.816667",
        "iso": "FR",
        "status": 1,
        "name": "Morlaix-Ploujean Airport",
        "continent": "EU",
        "type": "airport",
        "lat": "48.6",
        "size": "medium"
    },
    {
        "iata": "VNE",
        "lon": "-2.766667",
        "iso": "FR",
        "status": 1,
        "name": "Vannes-Meucon Airport",
        "continent": "EU",
        "type": "airport",
        "lat": "47.65",
        "size": "medium"
    },
    {
        "iata": "SNR",
        "lon": "-2.153864",
        "iso": "FR",
        "status": 1,
        "name": "Saint-Nazaire-Montoir Airport",
        "continent": "EU",
        "type": "airport",
        "lat": "47.312046",
        "size": "medium"
    },
    {
        "iata": "QBQ",
        "iso": "FR",
        "status": 1,
        "name": null,
        "continent": "EU",
        "type": "airport",
        "size": "small"
    },
    {
        "iata": "BSL",
        "lon": "7.532604",
        "iso": "FR",
        "status": 1,
        "name": "EuroAirport Basel-Mulhouse-Freiburg Airport",
        "continent": "EU",
        "type": "airport",
        "lat": "47.59961",
        "size": "medium"
    },
    {
        "iata": "DIJ",
        "lon": "5.088889",
        "iso": "FR",
        "status": 1,
        "name": "Dijon-Bourgogne Airport",
        "continent": "EU",
        "type": "airport",
        "lat": "47.270832",
        "size": "medium"
    },
    {
        "iata": "MZM",
        "lon": "6.134444",
        "iso": "FR",
        "status": 1,
        "name": "Metz-Frescaty (BA 128) Air Base",
        "continent": "EU",
        "type": "airport",
        "lat": "49.0725",
        "size": "medium"
    },
    {
        "iata": "EPL",
        "lon": "6.069444",
        "iso": "FR",
        "status": 1,
        "name": null,
        "continent": "EU",
        "type": "airport",
        "lat": "48.325832",
        "size": "medium"
    },
    {
        "iata": "XMF",
        "iso": "FR",
        "status": 1,
        "name": null,
        "continent": "EU",
        "type": "airport",
        "size": "medium"
    },
    {
        "iata": "ENC",
        "lon": "6.231667",
        "iso": "FR",
        "status": 1,
        "name": "Nancy-Essey Airport",
        "continent": "EU",
        "type": "airport",
        "lat": "48.691666",
        "size": "medium"
    },
    {
        "iata": "BOR",
        "lon": "7.011667",
        "iso": "FR",
        "status": 1,
        "name": "Fontaine Airport",
        "continent": "EU",
        "type": "airport",
        "lat": "47.655556",
        "size": "small"
    },
    {
        "iata": "RHE",
        "lon": "4.050556",
        "iso": "FR",
        "status": 1,
        "name": "Reims-Champagne (BA 112) Airport",
        "continent": "EU",
        "type": "airport",
        "lat": "49.310833",
        "size": "medium"
    },
    {
        "iata": "SXB",
        "lon": "7.627674",
        "iso": "FR",
        "status": 1,
        "name": "Strasbourg Airport",
        "continent": "EU",
        "type": "airport",
        "lat": "48.544876",
        "size": "medium"
    },
    {
        "iata": "VTL",
        "lon": "5.95",
        "iso": "FR",
        "status": 1,
        "name": "Vittel Champ De Course Airport",
        "continent": "EU",
        "type": "airport",
        "lat": "48.2",
        "size": "small"
    },
    {
        "iata": "XHE",
        "iso": "FR",
        "status": 1,
        "name": null,
        "continent": "EU",
        "type": "airport",
        "size": "medium"
    },
    {
        "iata": "FNI",
        "lon": "4.416667",
        "iso": "FR",
        "status": 1,
        "name": null,
        "continent": "EU",
        "type": "airport",
        "lat": "43.75",
        "size": "medium"
    },
    {
        "iata": "LTT",
        "lon": "6.633333",
        "iso": "FR",
        "status": 1,
        "name": null,
        "continent": "EU",
        "type": "airport",
        "lat": "43.283333",
        "size": "small"
    },
    {
        "iata": "MQC",
        "lon": "-56.333332",
        "iso": "PM",
        "status": 1,
        "name": "Miquelon Airport",
        "continent": "NA",
        "type": "airport",
        "lat": "47.05",
        "size": "medium"
    },
    {
        "iata": "FSP",
        "lon": "-56.166668",
        "iso": "PM",
        "status": 1,
        "name": "St Pierre Airport",
        "continent": "NA",
        "type": "airport",
        "lat": "46.916668",
        "size": "medium"
    },
    {
        "iata": "PYR",
        "lon": "21.466667",
        "iso": "GR",
        "status": 1,
        "name": "Andravida Airport",
        "continent": "EU",
        "type": "airport",
        "lat": "37.683334",
        "size": "medium"
    },
    {
        "iata": "AGQ",
        "lon": "21.351944",
        "iso": "GR",
        "status": 1,
        "name": "Agrinion Airport",
        "continent": "EU",
        "type": "airport",
        "lat": "38.604168",
        "size": "small"
    },
    {
        "iata": "AXD",
        "lon": "25.944893",
        "iso": "GR",
        "status": 1,
        "name": "Dimokritos Airport",
        "continent": "EU",
        "type": "airport",
        "lat": "40.856785",
        "size": "medium"
    },
    {
        "iata": "HEW",
        "lon": "23.814444",
        "iso": "GR",
        "status": 1,
        "name": "Athen Helenikon Airport",
        "continent": "EU",
        "type": "airport",
        "lat": "37.947224",
        "size": "small"
    },
    {
        "iata": "ATH",
        "lon": "23.946486",
        "iso": "GR",
        "status": 1,
        "name": "Eleftherios Venizelos International Airport",
        "continent": "EU",
        "type": "airport",
        "lat": "37.93635",
        "size": "large"
    },
    {
        "iata": "VOL",
        "lon": "22.93111",
        "iso": "GR",
        "status": 1,
        "name": "Nea Anchialos Airport",
        "continent": "EU",
        "type": "airport",
        "lat": "39.38333",
        "size": "medium"
    },
    {
        "iata": "JKH",
        "lon": "26.142336",
        "iso": "GR",
        "status": 1,
        "name": "Chios Island National Airport",
        "continent": "EU",
        "type": "airport",
        "lat": "38.345795",
        "size": "medium"
    },
    {
        "iata": "PKH",
        "lon": "23.147223",
        "iso": "GR",
        "status": 1,
        "name": "Porto Cheli Airport",
        "continent": "EU",
        "type": "airport",
        "lat": "37.301388",
        "size": "small"
    },
    {
        "iata": "JIK",
        "lon": "26.333332",
        "iso": "GR",
        "status": 1,
        "name": "Ikaria Airport",
        "continent": "EU",
        "type": "airport",
        "lat": "37.666668",
        "size": "medium"
    },
    {
        "iata": "IOA",
        "lon": "20.825832",
        "iso": "GR",
        "status": 1,
        "name": "Ioannina Airport",
        "continent": "EU",
        "type": "airport",
        "lat": "39.696667",
        "size": "medium"
    },
    {
        "iata": "HER",
        "lon": "25.174192",
        "iso": "GR",
        "status": 1,
        "name": "Heraklion International Nikos Kazantzakis Airport",
        "continent": "EU",
        "type": "airport",
        "lat": "35.33663",
        "size": "large"
    },
    {
        "iata": "KSO",
        "lon": "21.273333",
        "iso": "GR",
        "status": 1,
        "name": "Kastoria National Airport",
        "continent": "EU",
        "type": "airport",
        "lat": "40.450832",
        "size": "medium"
    },
    {
        "iata": "KIT",
        "lon": "23.025",
        "iso": "GR",
        "status": 1,
        "name": "Kithira Airport",
        "continent": "EU",
        "type": "airport",
        "lat": "36.291668",
        "size": "medium"
    },
    {
        "iata": "EFL",
        "lon": "20.505556",
        "iso": "GR",
        "status": 1,
        "name": "Kefallinia Airport",
        "continent": "EU",
        "type": "airport",
        "lat": "38.118057",
        "size": "medium"
    },
    {
        "iata": "KZS",
        "lon": "29.576376",
        "iso": "GR",
        "status": 1,
        "name": "Kastelorizo Airport",
        "continent": "EU",
        "type": "airport",
        "lat": "36.14167",
        "size": "small"
    },
    {
        "iata": "KLX",
        "lon": "22.027779",
        "iso": "GR",
        "status": 1,
        "name": "Kalamata Airport",
        "continent": "EU",
        "type": "airport",
        "lat": "37.069443",
        "size": "medium"
    },
    {
        "iata": "KGS",
        "lon": "27.095278",
        "iso": "GR",
        "status": 1,
        "name": "Kos Airport",
        "continent": "EU",
        "type": "airport",
        "lat": "36.793056",
        "size": "medium"
    },
    {
        "iata": "AOK",
        "lon": "27.146729",
        "iso": "GR",
        "status": 1,
        "name": "Karpathos Airport",
        "continent": "EU",
        "type": "airport",
        "lat": "35.420685",
        "size": "medium"
    },
    {
        "iata": "CFU",
        "lon": "19.914644",
        "iso": "GR",
        "status": 1,
        "name": "Ioannis Kapodistrias International Airport",
        "continent": "EU",
        "type": "airport",
        "lat": "39.60784",
        "size": "medium"
    },
    {
        "iata": "KSJ",
        "lon": "26.916668",
        "iso": "GR",
        "status": 1,
        "name": "Kasos Airport",
        "continent": "EU",
        "type": "airport",
        "lat": "35.42139",
        "size": "small"
    },
    {
        "iata": "KVA",
        "lon": "24.619675",
        "iso": "GR",
        "status": 1,
        "name": "Alexander the Great International Airport",
        "continent": "EU",
        "type": "airport",
        "lat": "40.912994",
        "size": "medium"
    },
    {
        "iata": "KZI",
        "lon": "21.841944",
        "iso": "GR",
        "status": 1,
        "name": "Filippos Airport",
        "continent": "EU",
        "type": "airport",
        "lat": "40.288612",
        "size": "medium"
    },
    {
        "iata": "LRS",
        "lon": "26.783333",
        "iso": "GR",
        "status": 1,
        "name": "Leros Airport",
        "continent": "EU",
        "type": "airport",
        "lat": "37.516666",
        "size": "small"
    },
    {
        "iata": "LXS",
        "lon": "25.233446",
        "iso": "GR",
        "status": 1,
        "name": "Limnos Airport",
        "continent": "EU",
        "type": "airport",
        "lat": "39.923904",
        "size": "medium"
    },
    {
        "iata": "LRA",
        "lon": "22.463888",
        "iso": "GR",
        "status": 1,
        "name": "Larisa Airport",
        "continent": "EU",
        "type": "airport",
        "lat": "39.65111",
        "size": "medium"
    },
    {
        "iata": "JMK",
        "lon": "25.344444",
        "iso": "GR",
        "status": 1,
        "name": "Mikonos Airport",
        "continent": "EU",
        "type": "airport",
        "lat": "37.43611",
        "size": "medium"
    },
    {
        "iata": "MLO",
        "lon": "24.475",
        "iso": "GR",
        "status": 1,
        "name": "Milos Airport",
        "continent": "EU",
        "type": "airport",
        "lat": "36.69611",
        "size": "small"
    },
    {
        "iata": "MJT",
        "lon": "26.599443",
        "iso": "GR",
        "status": 1,
        "name": "Mytilene International Airport",
        "continent": "EU",
        "type": "airport",
        "lat": "39.05611",
        "size": "medium"
    },
    {
        "iata": "JNX",
        "lon": "25.383333",
        "iso": "GR",
        "status": 1,
        "name": "Naxos Airport",
        "continent": "EU",
        "type": "airport",
        "lat": "37.1",
        "size": "small"
    },
    {
        "iata": "PAS",
        "lon": "25.1",
        "iso": "GR",
        "status": 1,
        "name": "Paros Airport",
        "continent": "EU",
        "type": "airport",
        "lat": "37.066666",
        "size": "small"
    },
    {
        "iata": "JTY",
        "lon": "26.366667",
        "iso": "GR",
        "status": 1,
        "name": "Astypalaia Airport",
        "continent": "EU",
        "type": "airport",
        "lat": "36.566666",
        "size": "medium"
    },
    {
        "iata": "PVK",
        "lon": "20.765833",
        "iso": "GR",
        "status": 1,
        "name": "Aktion National Airport",
        "continent": "EU",
        "type": "airport",
        "lat": "38.926388",
        "size": "medium"
    },
    {
        "iata": "RHO",
        "lon": "28.090677",
        "iso": "GR",
        "status": 1,
        "name": "Diagoras Airport",
        "continent": "EU",
        "type": "airport",
        "lat": "36.401867",
        "size": "medium"
    },
    {
        "iata": "GPA",
        "lon": "21.733334",
        "iso": "GR",
        "status": 1,
        "name": "Araxos Airport",
        "continent": "EU",
        "type": "airport",
        "lat": "38.25",
        "size": "medium"
    },
    {
        "iata": "CHQ",
        "lon": "24.140373",
        "iso": "GR",
        "status": 1,
        "name": "Chania International Airport",
        "continent": "EU",
        "type": "airport",
        "lat": "35.5402",
        "size": "medium"
    },
    {
        "iata": "JSI",
        "lon": "23.505556",
        "iso": "GR",
        "status": 1,
        "name": "Skiathos Island National Airport",
        "continent": "EU",
        "type": "airport",
        "lat": "39.180557",
        "size": "medium"
    },
    {
        "iata": "SMI",
        "lon": "26.914417",
        "iso": "GR",
        "status": 1,
        "name": "Samos Airport",
        "continent": "EU",
        "type": "airport",
        "lat": "37.69145",
        "size": "medium"
    },
    {
        "iata": "JSY",
        "lon": "24.95",
        "iso": "GR",
        "status": 1,
        "name": "Syros Airport",
        "continent": "EU",
        "type": "airport",
        "lat": "37.42361",
        "size": "medium"
    },
    {
        "iata": "SPJ",
        "lon": "22.533333",
        "iso": "GR",
        "status": 1,
        "name": "Sparti Airport",
        "continent": "EU",
        "type": "airport",
        "lat": "36.983334",
        "size": "small"
    },
    {
        "iata": "JTR",
        "lon": "25.475983",
        "iso": "GR",
        "status": 1,
        "name": "Santorini Airport",
        "continent": "EU",
        "type": "airport",
        "lat": "36.404263",
        "size": "medium"
    },
    {
        "iata": "JSH",
        "lon": "26.116667",
        "iso": "GR",
        "status": 1,
        "name": "Sitia Airport",
        "continent": "EU",
        "type": "airport",
        "lat": "35.216667",
        "size": "medium"
    },
    {
        "iata": "SKU",
        "lon": "24.566668",
        "iso": "GR",
        "status": 1,
        "name": "Skiros Airport",
        "continent": "EU",
        "type": "airport",
        "lat": "38.916668",
        "size": "medium"
    },
    {
        "iata": "SKG",
        "lon": "22.972221",
        "iso": "GR",
        "status": 1,
        "name": "Thessaloniki Macedonia International Airport",
        "continent": "EU",
        "type": "airport",
        "lat": "40.520832",
        "size": "large"
    },
    {
        "iata": "ZTH",
        "lon": "20.88471",
        "iso": "GR",
        "status": 1,
        "name": "Dionysios Solomos Airport",
        "continent": "EU",
        "type": "airport",
        "lat": "37.753506",
        "size": "medium"
    },
    {
        "iata": "BUD",
        "lon": "19.261621",
        "iso": "HU",
        "status": 1,
        "name": "Budapest Listz Ferenc international Airport",
        "continent": "EU",
        "type": "airport",
        "lat": "47.433037",
        "size": "large"
    },
    {
        "iata": "DEB",
        "lon": "21.7",
        "iso": "HU",
        "status": 1,
        "name": "Debrecen International Airport",
        "continent": "EU",
        "type": "airport",
        "lat": "47.55",
        "size": "medium"
    },
    {
        "iata": "MCQ",
        "lon": "20.833332",
        "iso": "HU",
        "status": 1,
        "name": "Miskolc Airport",
        "continent": "EU",
        "type": "airport",
        "lat": "48.11667",
        "size": "small"
    },
    {
        "iata": "PEV",
        "lon": "170.6",
        "iso": "HU",
        "status": 1,
        "name": null,
        "continent": "EU",
        "type": "airport",
        "lat": "69.78333",
        "size": "medium"
    },
    {
        "iata": "QGY",
        "iso": "HU",
        "status": 1,
        "name": null,
        "continent": "EU",
        "type": "airport",
        "size": "medium"
    },
    {
        "iata": "SOB",
        "lon": "17.240444",
        "iso": "HU",
        "status": 1,
        "name": null,
        "continent": "EU",
        "type": "airport",
        "lat": "46.71347",
        "size": "medium"
    },
    {
        "iata": "TZR",
        "lon": "-83.17194",
        "iso": "HU",
        "status": 1,
        "name": null,
        "continent": "EU",
        "type": "airport",
        "lat": "39.90817",
        "size": "medium"
    },
    {
        "iata": "QZD",
        "iso": "HU",
        "status": 1,
        "name": "Szeged Glider Airport",
        "continent": "EU",
        "type": "airport",
        "size": "small"
    },
    {
        "iata": "CRV",
        "lon": "17.080778",
        "iso": "IT",
        "status": 1,
        "name": "Crotone Airport",
        "continent": "EU",
        "type": "airport",
        "lat": "38.996304",
        "size": "medium"
    },
    {
        "iata": "BRI",
        "lon": "16.76391",
        "iso": "IT",
        "status": 1,
        "name": "Bari \/ Palese International Airport",
        "continent": "EU",
        "type": "airport",
        "lat": "41.13388",
        "size": "large"
    },
    {
        "iata": "FOG",
        "lon": "15.544367",
        "iso": "IT",
        "status": 1,
        "name": "Foggia \/ Gino Lisa Airport",
        "continent": "EU",
        "type": "airport",
        "lat": "41.43399",
        "size": "medium"
    },
    {
        "iata": "TAR",
        "lon": "17.401943",
        "iso": "IT",
        "status": 1,
        "name": "Taranto \/ Grottaglie Airport",
        "continent": "EU",
        "type": "airport",
        "lat": "40.517776",
        "size": "medium"
    },
    {
        "iata": "LCC",
        "lon": "18.133333",
        "iso": "IT",
        "status": 1,
        "name": "Lecce Airport",
        "continent": "EU",
        "type": "airport",
        "lat": "40.24278",
        "size": "medium"
    },
    {
        "iata": "PSR",
        "lon": "14.187222",
        "iso": "IT",
        "status": 1,
        "name": "Pescara International Airport",
        "continent": "EU",
        "type": "airport",
        "lat": "42.43722",
        "size": "medium"
    },
    {
        "iata": "BDS",
        "lon": "17.939053",
        "iso": "IT",
        "status": 1,
        "name": "Brindisi \/ Casale Airport",
        "continent": "EU",
        "type": "airport",
        "lat": "40.657993",
        "size": "medium"
    },
    {
        "iata": "SUF",
        "lon": "16.244972",
        "iso": "IT",
        "status": 1,
        "name": "Lamezia Terme Airport",
        "continent": "EU",
        "type": "airport",
        "lat": "38.910015",
        "size": "medium"
    },
    {
        "iata": "CIY",
        "lon": "14.609152",
        "iso": "IT",
        "status": 1,
        "name": "Comiso Airport \"\"Vincenzo Magliocco\"\"",
        "continent": "EU",
        "type": "airport",
        "lat": "36.99621",
        "size": "medium"
    },
    {
        "iata": "CTA",
        "lon": "15.065877",
        "iso": "IT",
        "status": 1,
        "name": "Catania \/ Fontanarossa Airport",
        "continent": "EU",
        "type": "airport",
        "lat": "37.47066",
        "size": "large"
    },
    {
        "iata": "LMP",
        "lon": "12.616667",
        "iso": "IT",
        "status": 1,
        "name": "Lampedusa Airport",
        "continent": "EU",
        "type": "airport",
        "lat": "35.5",
        "size": "medium"
    },
    {
        "iata": "PNL",
        "lon": "11.966111",
        "iso": "IT",
        "status": 1,
        "name": "Pantelleria Airport",
        "continent": "EU",
        "type": "airport",
        "lat": "36.81361",
        "size": "medium"
    },
    {
        "iata": "PMO",
        "lon": "13.104779",
        "iso": "IT",
        "status": 1,
        "name": "Palermo \/ Punta Raisi Airport",
        "continent": "EU",
        "type": "airport",
        "lat": "38.186523",
        "size": "large"
    },
    {
        "iata": "REG",
        "lon": "15.650833",
        "iso": "IT",
        "status": 1,
        "name": "Reggio Calabria Airport",
        "continent": "EU",
        "type": "airport",
        "lat": "38.07528",
        "size": "medium"
    },
    {
        "iata": "TPS",
        "lon": "12.495865",
        "iso": "IT",
        "status": 1,
        "name": "Trapani \/ Birgi Airport",
        "continent": "EU",
        "type": "airport",
        "lat": "37.901386",
        "size": "medium"
    },
    {
        "iata": "NSY",
        "lon": "14.933333",
        "iso": "IT",
        "status": 1,
        "name": "Sigonella Airport",
        "continent": "EU",
        "type": "airport",
        "lat": "37.4",
        "size": "medium"
    },
    {
        "iata": "BLX",
        "lon": "12.216667",
        "iso": "IT",
        "status": 1,
        "name": "Belluno Airport",
        "continent": "EU",
        "type": "airport",
        "lat": "46.15",
        "size": "small"
    },
    {
        "iata": "RAN",
        "lon": "12.223333",
        "iso": "IT",
        "status": 1,
        "name": "Ravenna Airport",
        "continent": "EU",
        "type": "airport",
        "lat": "44.36667",
        "size": "medium"
    },
    {
        "iata": "ZIA",
        "iso": "IT",
        "status": 1,
        "name": "Trento \/ Mattarello Airport",
        "continent": "EU",
        "type": "airport",
        "size": "medium"
    },
    {
        "iata": "AHO",
        "lon": "8.295891",
        "iso": "IT",
        "status": 1,
        "name": "Alghero \/ Fertilia Airport",
        "continent": "EU",
        "type": "airport",
        "lat": "40.630405",
        "size": "medium"
    },
    {
        "iata": "DCI",
        "lon": "8.966667",
        "iso": "IT",
        "status": 1,
        "name": "Decimomannu Airport",
        "continent": "EU",
        "type": "airport",
        "lat": "39.35",
        "size": "medium"
    },
    {
        "iata": "CAG",
        "lon": "9.060673",
        "iso": "IT",
        "status": 1,
        "name": "Cagliari \/ Elmas Airport",
        "continent": "EU",
        "type": "airport",
        "lat": "39.254333",
        "size": "large"
    },
    {
        "iata": "OLB",
        "lon": "9.514823",
        "iso": "IT",
        "status": 1,
        "name": "Olbia \/ Costa Smeralda Airport",
        "continent": "EU",
        "type": "airport",
        "lat": "40.903145",
        "size": "medium"
    },
    {
        "iata": "TTB",
        "lon": "9.683333",
        "iso": "IT",
        "status": 1,
        "name": "Tortoli' \/ Arbatax Airport",
        "continent": "EU",
        "type": "airport",
        "lat": "39.916668",
        "size": "medium"
    },
    {
        "iata": "QVA",
        "iso": "IT",
        "status": 1,
        "name": "Varese \/ Venegono Airport",
        "continent": "EU",
        "type": "airport",
        "size": "medium"
    },
    {
        "iata": "QMM",
        "lon": "10.146547",
        "iso": "IT",
        "status": 1,
        "name": "Massa Cinquale Airport",
        "continent": "EU",
        "type": "airport",
        "lat": "43.987595",
        "size": "small"
    },
    {
        "iata": "MXP",
        "lon": "8.71237",
        "iso": "IT",
        "status": 1,
        "name": "Malpensa International Airport",
        "continent": "EU",
        "type": "airport",
        "lat": "45.627403",
        "size": "large"
    },
    {
        "iata": "BGY",
        "lon": "9.698713",
        "iso": "IT",
        "status": 1,
        "name": "Bergamo \/ Orio Al Serio Airport",
        "continent": "EU",
        "type": "airport",
        "lat": "45.665314",
        "size": "large"
    },
    {
        "iata": "TRN",
        "lon": "7.643049",
        "iso": "IT",
        "status": 1,
        "name": "Torino \/ Caselle International Airport",
        "continent": "EU",
        "type": "airport",
        "lat": "45.191456",
        "size": "large"
    },
    {
        "iata": "ALL",
        "lon": "8.216667",
        "iso": "IT",
        "status": 1,
        "name": "Villanova D'Albenga International Airport",
        "continent": "EU",
        "type": "airport",
        "lat": "44.05",
        "size": "medium"
    },
    {
        "iata": "GOA",
        "lon": "8.85081",
        "iso": "IT",
        "status": 1,
        "name": "Genova \/ Sestri Cristoforo Colombo Airport",
        "continent": "EU",
        "type": "airport",
        "lat": "44.415066",
        "size": "large"
    },
    {
        "iata": "LIN",
        "lon": "9.279157",
        "iso": "IT",
        "status": 1,
        "name": "Linate Airport",
        "continent": "EU",
        "type": "airport",
        "lat": "45.460957",
        "size": "large"
    },
    {
        "iata": "PMF",
        "lon": "10.295278",
        "iso": "IT",
        "status": 1,
        "name": "Parma Airport",
        "continent": "EU",
        "type": "airport",
        "lat": "44.822224",
        "size": "medium"
    },
    {
        "iata": "QPZ",
        "iso": "IT",
        "status": 1,
        "name": "Piacenza Airport",
        "continent": "EU",
        "type": "airport",
        "size": "medium"
    },
    {
        "iata": "AOT",
        "lon": "7.3625",
        "iso": "IT",
        "status": 1,
        "name": "Aosta Airport",
        "continent": "EU",
        "type": "airport",
        "lat": "45.73861",
        "size": "medium"
    },
    {
        "iata": "CUF",
        "lon": "7.6175",
        "iso": "IT",
        "status": 1,
        "name": "Cuneo \/ Levaldigi Airport",
        "continent": "EU",
        "type": "airport",
        "lat": "44.53528",
        "size": "medium"
    },
    {
        "iata": "AVB",
        "lon": "12.6",
        "iso": "IT",
        "status": 1,
        "name": "Aviano Air Base",
        "continent": "EU",
        "type": "airport",
        "lat": "46.033333",
        "size": "medium"
    },
    {
        "iata": "BZO",
        "lon": "11.330511",
        "iso": "IT",
        "status": 1,
        "name": "Bolzano Airport",
        "continent": "EU",
        "type": "airport",
        "lat": "46.462444",
        "size": "medium"
    },
    {
        "iata": "UDN",
        "lon": "13.183333",
        "iso": "IT",
        "status": 1,
        "name": "Udine \/ Campoformido Air Base",
        "continent": "EU",
        "type": "airport",
        "lat": "46.033333",
        "size": "small"
    },
    {
        "iata": "BLQ",
        "lon": "11.293289",
        "iso": "IT",
        "status": 1,
        "name": "Bologna \/ Borgo Panigale Airport",
        "continent": "EU",
        "type": "airport",
        "lat": "44.529266",
        "size": "large"
    },
    {
        "iata": "TSF",
        "lon": "12.204444",
        "iso": "IT",
        "status": 1,
        "name": "Treviso \/ Sant'Angelo Airport",
        "continent": "EU",
        "type": "airport",
        "lat": "45.655113",
        "size": "large"
    },
    {
        "iata": "FRL",
        "lon": "12.07076",
        "iso": "IT",
        "status": 1,
        "name": null,
        "continent": "EU",
        "type": "airport",
        "lat": "44.19857",
        "size": "medium"
    },
    {
        "iata": "VBS",
        "lon": "10.326545",
        "iso": "IT",
        "status": 1,
        "name": "Brescia \/ Montichiari Airport",
        "continent": "EU",
        "type": "airport",
        "lat": "45.425446",
        "size": "medium"
    },
    {
        "iata": "TRS",
        "lon": "13.485678",
        "iso": "IT",
        "status": 1,
        "name": "Trieste \/ Ronchi Dei Legionari",
        "continent": "EU",
        "type": "airport",
        "lat": "45.82078",
        "size": "medium"
    },
    {
        "iata": "RMI",
        "lon": "12.619594",
        "iso": "IT",
        "status": 1,
        "name": "Rimini \/ Miramare - Federico Fellini International Airport",
        "continent": "EU",
        "type": "airport",
        "lat": "44.022953",
        "size": "medium"
    },
    {
        "iata": "VIC",
        "lon": "11.55",
        "iso": "IT",
        "status": 1,
        "name": "Vicenza Airport",
        "continent": "EU",
        "type": "airport",
        "lat": "45.55",
        "size": "medium"
    },
    {
        "iata": "QPA",
        "iso": "IT",
        "status": 1,
        "name": "Padova Airport",
        "continent": "EU",
        "type": "airport",
        "size": "medium"
    },
    {
        "iata": "VRN",
        "lon": "10.906796",
        "iso": "IT",
        "status": 1,
        "name": "Verona \/ Villafranca Airport",
        "continent": "EU",
        "type": "airport",
        "lat": "45.40233",
        "size": "large"
    },
    {
        "iata": "AOI",
        "lon": "13.355723",
        "iso": "IT",
        "status": 1,
        "name": "Ancona \/ Falconara Airport",
        "continent": "EU",
        "type": "airport",
        "lat": "43.60691",
        "size": "medium"
    },
    {
        "iata": "VCE",
        "lon": "12.337947",
        "iso": "IT",
        "status": 1,
        "name": "Venezia \/ Tessera -  Marco Polo Airport",
        "continent": "EU",
        "type": "airport",
        "lat": "45.502285",
        "size": "large"
    },
    {
        "iata": "QZO",
        "iso": "IT",
        "status": 1,
        "name": "Arezzo Airport",
        "continent": "EU",
        "type": "airport",
        "size": "small"
    },
    {
        "iata": "LCV",
        "lon": "10.583333",
        "iso": "IT",
        "status": 1,
        "name": "Lucca \/ Tassignano Airport",
        "continent": "EU",
        "type": "airport",
        "lat": "43.833332",
        "size": "small"
    },
    {
        "iata": "QRT",
        "iso": "IT",
        "status": 1,
        "name": "Rieti Airport",
        "continent": "EU",
        "type": "airport",
        "size": "small"
    },
    {
        "iata": "SAY",
        "lon": "11.25",
        "iso": "IT",
        "status": 1,
        "name": "Siena \/ Ampugnano Airport",
        "continent": "EU",
        "type": "airport",
        "lat": "43.25",
        "size": "medium"
    },
    {
        "iata": "CIA",
        "lon": "12.590987",
        "iso": "IT",
        "status": 1,
        "name": "Ciampino Airport",
        "continent": "EU",
        "type": "airport",
        "lat": "41.799065",
        "size": "large"
    },
    {
        "iata": "FCO",
        "lon": "12.250346",
        "iso": "IT",
        "status": 1,
        "name": "Leonardo Da Vinci (Fiumicino) International Airport",
        "continent": "EU",
        "type": "airport",
        "lat": "41.794594",
        "size": "large"
    },
    {
        "iata": "QFR",
        "iso": "IT",
        "status": 1,
        "name": "Frosinone Military Airport",
        "continent": "EU",
        "type": "airport",
        "size": "small"
    },
    {
        "iata": "QSR",
        "lon": "14.92084",
        "iso": "IT",
        "status": 1,
        "name": "Salerno \/ Pontecagnano Airport",
        "continent": "EU",
        "type": "airport",
        "lat": "40.620148",
        "size": "medium"
    },
    {
        "iata": "EBA",
        "lon": "10.240409",
        "iso": "IT",
        "status": 1,
        "name": "Marina Di Campo Airport",
        "continent": "EU",
        "type": "airport",
        "lat": "42.763103",
        "size": "medium"
    },
    {
        "iata": "QLT",
        "iso": "IT",
        "status": 1,
        "name": "Latina Airport",
        "continent": "EU",
        "type": "airport",
        "size": "medium"
    },
    {
        "iata": "NAP",
        "lon": "14.291667",
        "iso": "IT",
        "status": 1,
        "name": null,
        "continent": "EU",
        "type": "airport",
        "lat": "40.886112",
        "size": "large"
    },
    {
        "iata": "PSA",
        "lon": "10.399915",
        "iso": "IT",
        "status": 1,
        "name": "Pisa \/ San Giusto - Galileo Galilei International Airport",
        "continent": "EU",
        "type": "airport",
        "lat": "43.69871",
        "size": "large"
    },
    {
        "iata": "FLR",
        "lon": "11.201989",
        "iso": "IT",
        "status": 1,
        "name": "Firenze \/ Peretola Airport",
        "continent": "EU",
        "type": "airport",
        "lat": "43.802128",
        "size": "medium"
    },
    {
        "iata": "GRS",
        "lon": "11.070556",
        "iso": "IT",
        "status": 1,
        "name": "Grosseto Airport",
        "continent": "EU",
        "type": "airport",
        "lat": "42.761944",
        "size": "medium"
    },
    {
        "iata": "PEG",
        "lon": "12.366667",
        "iso": "IT",
        "status": 1,
        "name": "Perugia \/ San Egidio Airport",
        "continent": "EU",
        "type": "airport",
        "lat": "43.13333",
        "size": "medium"
    },
    {
        "iata": "LJU",
        "lon": "14.454972",
        "iso": "SI",
        "status": 1,
        "name": null,
        "continent": "EU",
        "type": "airport",
        "lat": "46.23102",
        "size": "large"
    },
    {
        "iata": "MBX",
        "lon": "15.686741",
        "iso": "SI",
        "status": 1,
        "name": "Maribor Airport",
        "continent": "EU",
        "type": "airport",
        "lat": "46.4785",
        "size": "medium"
    },
    {
        "iata": "POW",
        "lon": "13.583333",
        "iso": "SI",
        "status": 1,
        "name": "Portoroz Airport",
        "continent": "EU",
        "type": "airport",
        "lat": "45.516666",
        "size": "medium"
    },
    {
        "iata": "GTW",
        "lon": "17.516666",
        "iso": "CZ",
        "status": 1,
        "name": null,
        "continent": "EU",
        "type": "airport",
        "lat": "49.2",
        "size": "small"
    },
    {
        "iata": "UHE",
        "lon": "17.45",
        "iso": "CZ",
        "status": 1,
        "name": "Kunovice Airport",
        "continent": "EU",
        "type": "airport",
        "lat": "49.066666",
        "size": "medium"
    },
    {
        "iata": "KLV",
        "lon": "12.916667",
        "iso": "CZ",
        "status": 1,
        "name": "Karlovy Vary International Airport",
        "continent": "EU",
        "type": "airport",
        "lat": "50.2",
        "size": "medium"
    },
    {
        "iata": "MKA",
        "lon": "12.716667",
        "iso": "CZ",
        "status": 1,
        "name": null,
        "continent": "EU",
        "type": "airport",
        "lat": "49.983334",
        "size": "small"
    },
    {
        "iata": "OSR",
        "lon": "18.121284",
        "iso": "CZ",
        "status": 1,
        "name": null,
        "continent": "EU",
        "type": "airport",
        "lat": "49.69552",
        "size": "medium"
    },
    {
        "iata": "PED",
        "lon": "15.738611",
        "iso": "CZ",
        "status": 1,
        "name": "Pardubice Airport",
        "continent": "EU",
        "type": "airport",
        "lat": "50.013332",
        "size": "medium"
    },
    {
        "iata": "PRV",
        "lon": "17.208332",
        "iso": "CZ",
        "status": 1,
        "name": "P?erov Air Base",
        "continent": "EU",
        "type": "airport",
        "lat": "49.59028",
        "size": "medium"
    },
    {
        "iata": "PRG",
        "lon": "14.266638",
        "iso": "CZ",
        "status": 1,
        "name": "Ruzyn? International Airport",
        "continent": "EU",
        "type": "airport",
        "lat": "50.10619",
        "size": "large"
    },
    {
        "iata": "BRQ",
        "lon": "16.7",
        "iso": "CZ",
        "status": 1,
        "name": "Brno-Tu?any Airport",
        "continent": "EU",
        "type": "airport",
        "lat": "49.15",
        "size": "medium"
    },
    {
        "iata": "ZBE",
        "lon": "16.866667",
        "iso": "CZ",
        "status": 1,
        "name": "Zabreh Ostrava Airport",
        "continent": "EU",
        "type": "airport",
        "lat": "49.88333",
        "size": "small"
    },
    {
        "iata": "GHK",
        "iso": "PS",
        "status": 0,
        "name": "Gush Katif Airport",
        "continent": "AS",
        "type": "closed",
        "size": null
    },
    {
        "iata": "TLV",
        "lon": "34.870743",
        "iso": "IL",
        "status": 1,
        "name": "Ben Gurion International Airport",
        "continent": "AS",
        "type": "airport",
        "lat": "32.000454",
        "size": "large"
    },
    {
        "iata": "BEV",
        "lon": "34.8",
        "iso": "IL",
        "status": 1,
        "name": "Be'er Sheva (Teyman) Airport",
        "continent": "AS",
        "type": "airport",
        "lat": "31.25",
        "size": "small"
    },
    {
        "iata": "ETH",
        "lon": "34.95357",
        "iso": "IL",
        "status": 1,
        "name": "Eilat Airport",
        "continent": "AS",
        "type": "airport",
        "lat": "29.555616",
        "size": "medium"
    },
    {
        "iata": "EIY",
        "lon": "35.183334",
        "iso": "IL",
        "status": 1,
        "name": "Ein Yahav Airfield",
        "continent": "AS",
        "type": "airport",
        "lat": "30.633333",
        "size": "small"
    },
    {
        "iata": "HFA",
        "lon": "35.044594",
        "iso": "IL",
        "status": 1,
        "name": "Haifa International Airport",
        "continent": "AS",
        "type": "airport",
        "lat": "32.811466",
        "size": "medium"
    },
    {
        "iata": "RPN",
        "lon": "35.57111",
        "iso": "IL",
        "status": 1,
        "name": "Ben Ya'akov Airport",
        "continent": "AS",
        "type": "airport",
        "lat": "32.981667",
        "size": "medium"
    },
    {
        "iata": "JRS",
        "iso": "PS",
        "status": 0,
        "name": "Atarot Airport",
        "continent": "AS",
        "type": "closed",
        "size": null
    },
    {
        "iata": "KSW",
        "lon": "35.566666",
        "iso": "IL",
        "status": 1,
        "name": "Kiryat Shmona Airport",
        "continent": "AS",
        "type": "airport",
        "lat": "33.216667",
        "size": "small"
    },
    {
        "iata": "MTZ",
        "lon": "35.75",
        "iso": "IL",
        "status": 1,
        "name": "Bar Yehuda Airfield",
        "continent": "AS",
        "type": "airport",
        "lat": "33.233334",
        "size": "medium"
    },
    {
        "iata": "VTM",
        "iso": "IL",
        "status": 1,
        "name": "Nevatim Air Base",
        "continent": "AS",
        "type": "airport",
        "size": "medium"
    },
    {
        "iata": "VDA",
        "lon": "34.9339",
        "iso": "IL",
        "status": 1,
        "name": "Ovda International Airport",
        "continent": "AS",
        "type": "airport",
        "lat": "29.952015",
        "size": "large"
    },
    {
        "iata": "MIP",
        "lon": "34.8",
        "iso": "IL",
        "status": 1,
        "name": "Ramon Air Base",
        "continent": "AS",
        "type": "airport",
        "lat": "30.6",
        "size": "medium"
    },
    {
        "iata": "SDV",
        "lon": "34.787857",
        "iso": "IL",
        "status": 1,
        "name": "Sde Dov Airport",
        "continent": "AS",
        "type": "airport",
        "lat": "32.104885",
        "size": "medium"
    },
    {
        "iata": "YOT",
        "lon": "35.066666",
        "iso": "IL",
        "status": 1,
        "name": "Yotvata Airfield",
        "continent": "AS",
        "type": "airport",
        "lat": "29.9",
        "size": "small"
    },
    {
        "iata": "GZM",
        "iso": "MT",
        "status": 1,
        "name": "Xewkija Heliport",
        "continent": "EU",
        "type": "heliport",
        "size": null
    },
    {
        "iata": "MLA",
        "lon": "14.495401",
        "iso": "MT",
        "status": 1,
        "name": "Luqa Airport",
        "continent": "EU",
        "type": "airport",
        "lat": "35.849777",
        "size": "large"
    },
    {
        "iata": "HOH",
        "lon": "9.7",
        "iso": "AT",
        "status": 1,
        "name": "Hohenems-Dornbirn Airport",
        "continent": "EU",
        "type": "airport",
        "lat": "47.38333",
        "size": "small"
    },
    {
        "iata": "LOR",
        "iso": "US",
        "status": 1,
        "name": "Lowe AHP (Fort Rucker) Heliport",
        "continent": "NA",
        "type": "heliport",
        "size": null
    },
    {
        "iata": "GRZ",
        "lon": "15.444928",
        "iso": "AT",
        "status": 1,
        "name": "Graz Airport",
        "continent": "EU",
        "type": "airport",
        "lat": "46.994125",
        "size": "medium"
    },
    {
        "iata": "INN",
        "lon": "11.351467",
        "iso": "AT",
        "status": 1,
        "name": "Innsbruck Airport",
        "continent": "EU",
        "type": "airport",
        "lat": "47.25745",
        "size": "medium"
    },
    {
        "iata": "KLU",
        "lon": "14.324192",
        "iso": "AT",
        "status": 1,
        "name": "Klagenfurt Airport",
        "continent": "EU",
        "type": "airport",
        "lat": "46.650124",
        "size": "medium"
    },
    {
        "iata": "LNZ",
        "lon": "14.193345",
        "iso": "AT",
        "status": 1,
        "name": "Linz Airport",
        "continent": "EU",
        "type": "airport",
        "lat": "48.23987",
        "size": "medium"
    },
    {
        "iata": "SZG",
        "lon": "12.997331",
        "iso": "AT",
        "status": 1,
        "name": "Salzburg Airport",
        "continent": "EU",
        "type": "airport",
        "lat": "47.791225",
        "size": "medium"
    },
    {
        "iata": "VIE",
        "lon": "16.563583",
        "iso": "AT",
        "status": 1,
        "name": "Vienna International Airport",
        "continent": "EU",
        "type": "airport",
        "lat": "48.11972",
        "size": "large"
    },
    {
        "iata": "SMA",
        "lon": "-25.1",
        "iso": "PT",
        "status": 1,
        "name": "Santa Maria Airport",
        "continent": "EU",
        "type": "airport",
        "lat": "36.966667",
        "size": "medium"
    },
    {
        "iata": "BGC",
        "lon": "-6.75",
        "iso": "PT",
        "status": 1,
        "name": "Braganca Airport",
        "continent": "EU",
        "type": "airport",
        "lat": "41.816666",
        "size": "medium"
    },
    {
        "iata": "BYJ",
        "iso": "PT",
        "status": 1,
        "name": "Beja International Airport",
        "continent": "EU",
        "type": "airport",
        "size": "medium"
    },
    {
        "iata": "BGZ",
        "lon": "-8.433333",
        "iso": "PT",
        "status": 1,
        "name": "Braga Municipal Aerodrome",
        "continent": "EU",
        "type": "airport",
        "lat": "41.55",
        "size": "medium"
    },
    {
        "iata": "CHV",
        "lon": "-7.466667",
        "iso": "PT",
        "status": 1,
        "name": "Chaves Airport",
        "continent": "EU",
        "type": "airport",
        "lat": "41.733334",
        "size": "small"
    },
    {
        "iata": "CBP",
        "lon": "-8.416667",
        "iso": "PT",
        "status": 1,
        "name": "Coimbra Airport",
        "continent": "EU",
        "type": "airport",
        "lat": "40.2",
        "size": "medium"
    },
    {
        "iata": "CVU",
        "lon": "-31.1",
        "iso": "PT",
        "status": 1,
        "name": "Corvo Airport",
        "continent": "EU",
        "type": "airport",
        "lat": "39.7",
        "size": "small"
    },
    {
        "iata": "COV",
        "lon": "-7.5",
        "iso": "PT",
        "status": 1,
        "name": "Covilha Airport",
        "continent": "EU",
        "type": "airport",
        "lat": "40.283333",
        "size": "medium"
    },
    {
        "iata": "FLW",
        "lon": "-31.15",
        "iso": "PT",
        "status": 1,
        "name": "Flores Airport",
        "continent": "EU",
        "type": "airport",
        "lat": "39.466667",
        "size": "medium"
    },
    {
        "iata": "FAO",
        "lon": "-7.968545",
        "iso": "PT",
        "status": 1,
        "name": "Faro Airport",
        "continent": "EU",
        "type": "airport",
        "lat": "37.020645",
        "size": "large"
    },
    {
        "iata": "GRW",
        "lon": "-28.027958",
        "iso": "PT",
        "status": 1,
        "name": "Graciosa Airport",
        "continent": "EU",
        "type": "airport",
        "lat": "39.090954",
        "size": "medium"
    },
    {
        "iata": "HOR",
        "lon": "-28.717222",
        "iso": "PT",
        "status": 1,
        "name": "Horta Airport",
        "continent": "EU",
        "type": "airport",
        "lat": "38.52",
        "size": "medium"
    },
    {
        "iata": "TER",
        "lon": "-27.08757",
        "iso": "PT",
        "status": 1,
        "name": "Lajes Field",
        "continent": "EU",
        "type": "airport",
        "lat": "38.754074",
        "size": "large"
    },
    {
        "iata": "FNC",
        "lon": "-16.775635",
        "iso": "PT",
        "status": 1,
        "name": "Madeira Airport",
        "continent": "EU",
        "type": "airport",
        "lat": "32.693123",
        "size": "medium"
    },
    {
        "iata": "PAF",
        "lon": "31.554146",
        "iso": "PT",
        "status": 1,
        "name": "Montijo Airport",
        "continent": "EU",
        "type": "airport",
        "lat": "2.203072",
        "size": "medium"
    },
    {
        "iata": "PDL",
        "lon": "-25.696468",
        "iso": "PT",
        "status": 1,
        "name": null,
        "continent": "EU",
        "type": "airport",
        "lat": "37.743847",
        "size": "large"
    },
    {
        "iata": "PIX",
        "lon": "-28.3",
        "iso": "PT",
        "status": 1,
        "name": "Pico Airport",
        "continent": "EU",
        "type": "airport",
        "lat": "38.466667",
        "size": "medium"
    },
    {
        "iata": "PRM",
        "lon": "-8.533333",
        "iso": "PT",
        "status": 1,
        "name": "Portimao Airport",
        "continent": "EU",
        "type": "airport",
        "lat": "37.13333",
        "size": "medium"
    },
    {
        "iata": "OPO",
        "lon": "-8.670272",
        "iso": "PT",
        "status": 1,
        "name": null,
        "continent": "EU",
        "type": "airport",
        "lat": "41.237774",
        "size": "large"
    },
    {
        "iata": "PXO",
        "lon": "-16.345015",
        "iso": "PT",
        "status": 1,
        "name": "Porto Santo Airport",
        "continent": "EU",
        "type": "airport",
        "lat": "33.070023",
        "size": "medium"
    },
    {
        "iata": "LIS",
        "lon": "-9.128165",
        "iso": "PT",
        "status": 1,
        "name": "Lisbon Portela Airport",
        "continent": "EU",
        "type": "airport",
        "lat": "38.770042",
        "size": "large"
    },
    {
        "iata": "SIE",
        "lon": "-8.85",
        "iso": "PT",
        "status": 1,
        "name": "Sines Airport",
        "continent": "EU",
        "type": "airport",
        "lat": "37.933334",
        "size": "small"
    },
    {
        "iata": "SJZ",
        "lon": "-28.16843",
        "iso": "PT",
        "status": 1,
        "name": null,
        "continent": "EU",
        "type": "airport",
        "lat": "38.664616",
        "size": "medium"
    },
    {
        "iata": "VRL",
        "lon": "-7.75",
        "iso": "PT",
        "status": 1,
        "name": "Vila Real Airport",
        "continent": "EU",
        "type": "airport",
        "lat": "41.3",
        "size": "medium"
    },
    {
        "iata": "VSE",
        "lon": "-7.916667",
        "iso": "PT",
        "status": 1,
        "name": "Viseu Airport",
        "continent": "EU",
        "type": "airport",
        "lat": "40.65",
        "size": "medium"
    },
    {
        "iata": "BNX",
        "lon": "17.3",
        "iso": "BA",
        "status": 1,
        "name": "Banja Luka International Airport",
        "continent": "EU",
        "type": "airport",
        "lat": "44.933334",
        "size": "medium"
    },
    {
        "iata": "OMO",
        "lon": "17.846666",
        "iso": "BA",
        "status": 1,
        "name": "Mostar International Airport",
        "continent": "EU",
        "type": "airport",
        "lat": "43.285557",
        "size": "medium"
    },
    {
        "iata": "SJJ",
        "lon": "18.336065",
        "iso": "BA",
        "status": 1,
        "name": "Sarajevo International Airport",
        "continent": "EU",
        "type": "airport",
        "lat": "43.826687",
        "size": "large"
    },
    {
        "iata": "TZL",
        "lon": "18.709167",
        "iso": "BA",
        "status": 1,
        "name": "Tuzla International Airport",
        "continent": "EU",
        "type": "airport",
        "lat": "44.40972",
        "size": "medium"
    },
    {
        "iata": "ARW",
        "lon": "21.266666",
        "iso": "RO",
        "status": 1,
        "name": "Arad International Airport",
        "continent": "EU",
        "type": "airport",
        "lat": "46.183334",
        "size": "medium"
    },
    {
        "iata": "BCM",
        "lon": "26.881945",
        "iso": "RO",
        "status": 1,
        "name": "Bac?u Airport",
        "continent": "EU",
        "type": "airport",
        "lat": "46.59861",
        "size": "medium"
    },
    {
        "iata": "BAY",
        "lon": "23.466667",
        "iso": "RO",
        "status": 1,
        "name": "Tautii Magheraus Airport",
        "continent": "EU",
        "type": "airport",
        "lat": "47.65",
        "size": "medium"
    },
    {
        "iata": "BBU",
        "lon": "26.080996",
        "iso": "RO",
        "status": 1,
        "name": "B?neasa International Airport",
        "continent": "EU",
        "type": "airport",
        "lat": "44.495934",
        "size": "medium"
    },
    {
        "iata": "CND",
        "lon": "28.483334",
        "iso": "RO",
        "status": 1,
        "name": "Mihail Kog?lniceanu International Airport",
        "continent": "EU",
        "type": "airport",
        "lat": "44.35",
        "size": "medium"
    },
    {
        "iata": "CLJ",
        "lon": "23.687014",
        "iso": "RO",
        "status": 1,
        "name": "Cluj-Napoca International Airport",
        "continent": "EU",
        "type": "airport",
        "lat": "46.782063",
        "size": "medium"
    },
    {
        "iata": "CSB",
        "lon": "22.216667",
        "iso": "RO",
        "status": 1,
        "name": "Caransebe? Airport",
        "continent": "EU",
        "type": "airport",
        "lat": "45.416668",
        "size": "medium"
    },
    {
        "iata": "CRA",
        "lon": "23.886389",
        "iso": "RO",
        "status": 1,
        "name": "Craiova Airport",
        "continent": "EU",
        "type": "airport",
        "lat": "44.31889",
        "size": "medium"
    },
    {
        "iata": "IAS",
        "lon": "27.616993",
        "iso": "RO",
        "status": 1,
        "name": "Ia?i Airport",
        "continent": "EU",
        "type": "airport",
        "lat": "47.176987",
        "size": "medium"
    },
    {
        "iata": "LRO",
        "iso": "US",
        "status": 0,
        "name": "Sharpe AAF",
        "continent": "NA",
        "type": "closed",
        "size": null
    },
    {
        "iata": "OMR",
        "lon": "21.903055",
        "iso": "RO",
        "status": 1,
        "name": "Oradea International Airport",
        "continent": "EU",
        "type": "airport",
        "lat": "47.0275",
        "size": "medium"
    },
    {
        "iata": "OTP",
        "lon": "26.077063",
        "iso": "RO",
        "status": 1,
        "name": "Henri Coand? International Airport",
        "continent": "EU",
        "type": "airport",
        "lat": "44.571156",
        "size": "large"
    },
    {
        "iata": "SBZ",
        "lon": "24.093529",
        "iso": "RO",
        "status": 1,
        "name": "Sibiu International Airport",
        "continent": "EU",
        "type": "airport",
        "lat": "45.789757",
        "size": "medium"
    },
    {
        "iata": "SUJ",
        "lon": "22.883333",
        "iso": "RO",
        "status": 1,
        "name": "Satu Mare Airport",
        "continent": "EU",
        "type": "airport",
        "lat": "47.7",
        "size": "medium"
    },
    {
        "iata": "SCV",
        "lon": "26.356112",
        "iso": "RO",
        "status": 1,
        "name": "Suceava Stefan cel Mare Airport",
        "continent": "EU",
        "type": "airport",
        "lat": "47.689445",
        "size": "medium"
    },
    {
        "iata": "TCE",
        "lon": "28.816668",
        "iso": "RO",
        "status": 1,
        "name": "Tulcea Airport",
        "continent": "EU",
        "type": "airport",
        "lat": "45.183334",
        "size": "medium"
    },
    {
        "iata": "TGM",
        "lon": "24.533333",
        "iso": "RO",
        "status": 1,
        "name": null,
        "continent": "EU",
        "type": "airport",
        "lat": "46.533333",
        "size": "medium"
    },
    {
        "iata": "TSR",
        "lon": "21.32012",
        "iso": "RO",
        "status": 1,
        "name": "Timi?oara Traian Vuia Airport",
        "continent": "EU",
        "type": "airport",
        "lat": "45.809925",
        "size": "medium"
    },
    {
        "iata": "GVA",
        "lon": "6.105774",
        "iso": "CH",
        "status": 1,
        "name": "Geneva Cointrin International Airport",
        "continent": "EU",
        "type": "airport",
        "lat": "46.229633",
        "size": "large"
    },
    {
        "iata": "QNC",
        "iso": "CH",
        "status": 1,
        "name": "Neuchatel Airport",
        "continent": "EU",
        "type": "airport",
        "size": "small"
    },
    {
        "iata": "SIR",
        "lon": "7.333333",
        "iso": "CH",
        "status": 1,
        "name": "Sion Airport",
        "continent": "EU",
        "type": "airport",
        "lat": "46.25",
        "size": "medium"
    },
    {
        "iata": "ZIN",
        "lon": "8.983056",
        "iso": "CH",
        "status": 1,
        "name": "Interlaken Air Base",
        "continent": "EU",
        "type": "airport",
        "lat": "13.779444",
        "size": "small"
    },
    {
        "iata": "LUG",
        "lon": "8.966667",
        "iso": "CH",
        "status": 1,
        "name": "Lugano Airport",
        "continent": "EU",
        "type": "airport",
        "lat": "46.016666",
        "size": "medium"
    },
    {
        "iata": "BRN",
        "lon": "7.50356",
        "iso": "CH",
        "status": 1,
        "name": "Bern Belp Airport",
        "continent": "EU",
        "type": "airport",
        "lat": "46.911728",
        "size": "medium"
    },
    {
        "iata": "BXO",
        "lon": "8.383333",
        "iso": "CH",
        "status": 1,
        "name": "Buochs Airport",
        "continent": "EU",
        "type": "airport",
        "lat": "46.966667",
        "size": "small"
    },
    {
        "iata": "ACO",
        "iso": "CH",
        "status": 0,
        "name": "Ascona Airport",
        "continent": "EU",
        "type": "closed",
        "size": null
    },
    {
        "iata": "ZHI",
        "iso": "CH",
        "status": 1,
        "name": "Grenchen Airport",
        "continent": "EU",
        "type": "airport",
        "size": "medium"
    },
    {
        "iata": "ZRH",
        "lon": "8.561746",
        "iso": "CH",
        "status": 1,
        "name": null,
        "continent": "EU",
        "type": "airport",
        "lat": "47.450603",
        "size": "large"
    },
    {
        "iata": "ZJI",
        "iso": "CH",
        "status": 1,
        "name": "Locarno Airport",
        "continent": "EU",
        "type": "airport",
        "size": "small"
    },
    {
        "iata": "ACH",
        "lon": "9.566667",
        "iso": "CH",
        "status": 1,
        "name": "St Gallen Altenrhein Airport",
        "continent": "EU",
        "type": "airport",
        "lat": "47.483334",
        "size": "medium"
    },
    {
        "iata": "SMV",
        "lon": "9.885556",
        "iso": "CH",
        "status": 1,
        "name": "Samedan Airport",
        "continent": "EU",
        "type": "airport",
        "lat": "46.53472",
        "size": "medium"
    },
    {
        "iata": "GKD",
        "iso": "TR",
        "status": 1,
        "name": "Imroz Airport",
        "continent": "EU",
        "type": "airport",
        "size": "small"
    },
    {
        "iata": "ESB",
        "lon": "32.993145",
        "iso": "TR",
        "status": 1,
        "name": "Esenbo?a International Airport",
        "continent": "AS",
        "type": "airport",
        "lat": "40.11494",
        "size": "large"
    },
    {
        "iata": "ANK",
        "lon": "32.833332",
        "iso": "TR",
        "status": 1,
        "name": "Etimesgut Air Base",
        "continent": "AS",
        "type": "airport",
        "lat": "39.983334",
        "size": "medium"
    },
    {
        "iata": "ADA",
        "lon": "35.29736",
        "iso": "TR",
        "status": 1,
        "name": "Adana Airport",
        "continent": "AS",
        "type": "airport",
        "lat": "36.98503",
        "size": "large"
    },
    {
        "iata": "UAB",
        "lon": "35.41833",
        "iso": "TR",
        "status": 1,
        "name": "?ncirlik Air Base",
        "continent": "AS",
        "type": "airport",
        "lat": "37.00028",
        "size": "medium"
    },
    {
        "iata": "AFY",
        "lon": "30.6",
        "iso": "TR",
        "status": 1,
        "name": "Afyon Airport",
        "continent": "AS",
        "type": "airport",
        "lat": "38.733334",
        "size": "medium"
    },
    {
        "iata": "AYT",
        "lon": "30.80135",
        "iso": "TR",
        "status": 1,
        "name": "Antalya International Airport",
        "continent": "AS",
        "type": "airport",
        "lat": "36.89928",
        "size": "large"
    },
    {
        "iata": "GZT",
        "lon": "37.473747",
        "iso": "TR",
        "status": 1,
        "name": "Gaziantep International Airport",
        "continent": "AS",
        "type": "airport",
        "lat": "36.944935",
        "size": "large"
    },
    {
        "iata": "ISK",
        "lon": "73.811264",
        "iso": "TR",
        "status": 1,
        "name": "?skenderun Airport",
        "continent": "AS",
        "type": "airport",
        "lat": "19.966942",
        "size": "small"
    },
    {
        "iata": "KFS",
        "lon": "33.794952",
        "iso": "TR",
        "status": 1,
        "name": "Kastamonu Airport",
        "continent": "AS",
        "type": "airport",
        "lat": "41.306446",
        "size": "small"
    },
    {
        "iata": "KYA",
        "lon": "32.56222",
        "iso": "TR",
        "status": 1,
        "name": "Konya Airport",
        "continent": "AS",
        "type": "airport",
        "lat": "37.979168",
        "size": "medium"
    },
    {
        "iata": "MZH",
        "lon": "35.533333",
        "iso": "TR",
        "status": 1,
        "name": "Amasya Merzifon Airport",
        "continent": "AS",
        "type": "airport",
        "lat": "40.88333",
        "size": "medium"
    },
    {
        "iata": "SSX",
        "lon": "36.30361",
        "iso": "TR",
        "status": 1,
        "name": "Samsun Samair Airport",
        "continent": "AS",
        "type": "airport",
        "lat": "41.27833",
        "size": "small"
    },
    {
        "iata": "VAS",
        "lon": "36.904167",
        "iso": "TR",
        "status": 1,
        "name": "Sivas Airport",
        "continent": "AS",
        "type": "airport",
        "lat": "39.81389",
        "size": "medium"
    },
    {
        "iata": "ONQ",
        "lon": "32.1",
        "iso": "TR",
        "status": 1,
        "name": "Zonguldak Airport",
        "continent": "AS",
        "type": "airport",
        "lat": "41.516666",
        "size": "small"
    },
    {
        "iata": "MLX",
        "lon": "38.253613",
        "iso": "TR",
        "status": 1,
        "name": null,
        "continent": "AS",
        "type": "airport",
        "lat": "38.354443",
        "size": "medium"
    },
    {
        "iata": "ASR",
        "lon": "35.490707",
        "iso": "TR",
        "status": 1,
        "name": "Kayseri Erkilet Airport",
        "continent": "AS",
        "type": "airport",
        "lat": "38.7742",
        "size": "medium"
    },
    {
        "iata": "TJK",
        "lon": "36.36778",
        "iso": "TR",
        "status": 1,
        "name": "Tokat Airport",
        "continent": "AS",
        "type": "airport",
        "lat": "40.302223",
        "size": "medium"
    },
    {
        "iata": "DNZ",
        "lon": "29.703333",
        "iso": "TR",
        "status": 1,
        "name": null,
        "continent": "AS",
        "type": "airport",
        "lat": "37.787224",
        "size": "medium"
    },
    {
        "iata": "NAV",
        "lon": "34.716667",
        "iso": "TR",
        "status": 1,
        "name": "Nev?ehir Kapadokya International Airport",
        "continent": "AS",
        "type": "airport",
        "lat": "38.63333",
        "size": "large"
    },
    {
        "iata": "LTB",
        "iso": "AU",
        "status": 0,
        "name": "Latrobe Airport",
        "continent": "OC",
        "type": "closed",
        "size": null
    },
    {
        "iata": "IST",
        "lon": "28.815277",
        "iso": "TR",
        "status": 1,
        "name": null,
        "continent": "EU",
        "type": "airport",
        "lat": "40.976665",
        "size": "large"
    },
    {
        "iata": "BTZ",
        "lon": "29.009722",
        "iso": "TR",
        "status": 1,
        "name": "Bursa Airport",
        "continent": "AS",
        "type": "airport",
        "lat": "40.234444",
        "size": "small"
    },
    {
        "iata": "BZI",
        "lon": "27.927778",
        "iso": "TR",
        "status": 1,
        "name": "Bal?kesir Merkez Airport",
        "continent": "AS",
        "type": "airport",
        "lat": "39.61722",
        "size": "medium"
    },
    {
        "iata": "BDM",
        "lon": "27.977222",
        "iso": "TR",
        "status": 1,
        "name": "Band?rma Airport",
        "continent": "AS",
        "type": "airport",
        "lat": "40.318333",
        "size": "medium"
    },
    {
        "iata": "CKZ",
        "lon": "26.4",
        "iso": "TR",
        "status": 1,
        "name": null,
        "continent": "AS",
        "type": "airport",
        "lat": "40.13333",
        "size": "medium"
    },
    {
        "iata": "ESK",
        "lon": "30.582111",
        "iso": "TR",
        "status": 1,
        "name": "Eski?ehir Air Base",
        "continent": "AS",
        "type": "airport",
        "lat": "39.784138",
        "size": "medium"
    },
    {
        "iata": "ADB",
        "lon": "27.147594",
        "iso": "TR",
        "status": 1,
        "name": "Adnan Menderes International Airport",
        "continent": "AS",
        "type": "airport",
        "lat": "38.294403",
        "size": "large"
    },
    {
        "iata": "IGL",
        "lon": "27.159445",
        "iso": "TR",
        "status": 1,
        "name": null,
        "continent": "AS",
        "type": "airport",
        "lat": "38.31889",
        "size": "medium"
    },
    {
        "iata": "USQ",
        "lon": "29.471945",
        "iso": "TR",
        "status": 1,
        "name": "U?ak Airport",
        "continent": "AS",
        "type": "airport",
        "lat": "38.68222",
        "size": "small"
    },
    {
        "iata": "KCO",
        "lon": "30.083336",
        "iso": "TR",
        "status": 1,
        "name": "Cengiz Topel Airport",
        "continent": "AS",
        "type": "airport",
        "lat": "40.735027",
        "size": "medium"
    },
    {
        "iata": "YEI",
        "lon": "29.55",
        "iso": "TR",
        "status": 1,
        "name": "Bursa Yeni?ehir Airport",
        "continent": "AS",
        "type": "airport",
        "lat": "40.233334",
        "size": "medium"
    },
    {
        "iata": "DLM",
        "lon": "28.794546",
        "iso": "TR",
        "status": 1,
        "name": "Dalaman International Airport",
        "continent": "AS",
        "type": "airport",
        "lat": "36.717552",
        "size": "large"
    },
    {
        "iata": "TEQ",
        "lon": "27.5",
        "iso": "TR",
        "status": 1,
        "name": null,
        "continent": "EU",
        "type": "airport",
        "lat": "40.966667",
        "size": "medium"
    },
    {
        "iata": "BXN",
        "lon": "27.667221",
        "iso": "TR",
        "status": 1,
        "name": "Ims?k Airport",
        "continent": "AS",
        "type": "airport",
        "lat": "37.134724",
        "size": "small"
    },
    {
        "iata": "AOE",
        "lon": "30.519444",
        "iso": "TR",
        "status": 1,
        "name": "Anadolu University Airport",
        "continent": "AS",
        "type": "airport",
        "lat": "39.81",
        "size": "medium"
    },
    {
        "iata": "EZS",
        "lon": "39.291668",
        "iso": "TR",
        "status": 1,
        "name": "Elaz?? Airport",
        "continent": "AS",
        "type": "airport",
        "lat": "38.608334",
        "size": "medium"
    }
]
