[
{
        "iata": "YEI",
        "lon": "29.55",
        "iso": "TR",
        "status": 1,
        "name": "Bursa Yeni?ehir Airport",
        "continent": "AS",
        "type": "airport",
        "lat": "40.233334",
        "size": "medium"
    },
    {
        "iata": "DLM",
        "lon": "28.794546",
        "iso": "TR",
        "status": 1,
        "name": "Dalaman International Airport",
        "continent": "AS",
        "type": "airport",
        "lat": "36.717552",
        "size": "large"
    },
    {
        "iata": "TEQ",
        "lon": "27.5",
        "iso": "TR",
        "status": 1,
        "name": null,
        "continent": "EU",
        "type": "airport",
        "lat": "40.966667",
        "size": "medium"
    },
    {
        "iata": "BXN",
        "lon": "27.667221",
        "iso": "TR",
        "status": 1,
        "name": "Ims?k Airport",
        "continent": "AS",
        "type": "airport",
        "lat": "37.134724",
        "size": "small"
    },
    {
        "iata": "AOE",
        "lon": "30.519444",
        "iso": "TR",
        "status": 1,
        "name": "Anadolu University Airport",
        "continent": "AS",
        "type": "airport",
        "lat": "39.81",
        "size": "medium"
    },
    {
        "iata": "EZS",
        "lon": "39.291668",
        "iso": "TR",
        "status": 1,
        "name": "Elaz?? Airport",
        "continent": "AS",
        "type": "airport",
        "lat": "38.608334",
        "size": "medium"
    },
    {
        "iata": "DIY",
        "lon": "40.20458",
        "iso": "TR",
        "status": 1,
        "name": "Diyarbakir Airport",
        "continent": "AS",
        "type": "airport",
        "lat": "37.903873",
        "size": "medium"
    },
    {
        "iata": "ERC",
        "lon": "39.516945",
        "iso": "TR",
        "status": 1,
        "name": "Erzincan Airport",
        "continent": "AS",
        "type": "airport",
        "lat": "39.711666",
        "size": "medium"
    },
    {
        "iata": "ERZ",
        "lon": "41.17361",
        "iso": "TR",
        "status": 1,
        "name": "Erzurum International Airport",
        "continent": "AS",
        "type": "airport",
        "lat": "39.955555",
        "size": "large"
    },
    {
        "iata": "KSY",
        "lon": "43.085835",
        "iso": "TR",
        "status": 1,
        "name": "Kars Airport",
        "continent": "AS",
        "type": "airport",
        "lat": "40.551666",
        "size": "medium"
    },
    {
        "iata": "TZX",
        "lon": "39.78168",
        "iso": "TR",
        "status": 1,
        "name": "Trabzon International Airport",
        "continent": "AS",
        "type": "airport",
        "lat": "40.99419",
        "size": "large"
    },
    {
        "iata": "SFQ",
        "lon": "38.85",
        "iso": "TR",
        "status": 1,
        "name": "?anl?urfa Airport",
        "continent": "AS",
        "type": "airport",
        "lat": "37.085278",
        "size": "medium"
    },
    {
        "iata": "VAN",
        "lon": "43.332222",
        "iso": "TR",
        "status": 1,
        "name": "Van Ferit Melen Airport",
        "continent": "AS",
        "type": "airport",
        "lat": "38.45861",
        "size": "medium"
    },
    {
        "iata": "BAL",
        "lon": "41.083332",
        "iso": "TR",
        "status": 1,
        "name": "Batman Airport",
        "continent": "AS",
        "type": "airport",
        "lat": "37.916668",
        "size": "medium"
    },
    {
        "iata": "MSR",
        "lon": "41.625",
        "iso": "TR",
        "status": 1,
        "name": "Mu? Airport",
        "continent": "AS",
        "type": "airport",
        "lat": "38.725",
        "size": "medium"
    },
    {
        "iata": "SXZ",
        "lon": "41.84",
        "iso": "TR",
        "status": 1,
        "name": "Siirt Airport",
        "continent": "AS",
        "type": "airport",
        "lat": "37.98",
        "size": "medium"
    },
    {
        "iata": "SIC",
        "lon": "35.06889",
        "iso": "TR",
        "status": 1,
        "name": "Sinop Airport",
        "continent": "AS",
        "type": "airport",
        "lat": "42.0175",
        "size": "small"
    },
    {
        "iata": "KCM",
        "lon": "36.950558",
        "iso": "TR",
        "status": 1,
        "name": "Kahramanmara? Airport",
        "continent": "AS",
        "type": "airport",
        "lat": "37.534443",
        "size": "medium"
    },
    {
        "iata": "AJI",
        "lon": "43.025",
        "iso": "TR",
        "status": 1,
        "name": "A?r? Airport",
        "continent": "AS",
        "type": "airport",
        "lat": "39.65",
        "size": "medium"
    },
    {
        "iata": "ADF",
        "lon": "38.266666",
        "iso": "TR",
        "status": 1,
        "name": "Ad?yaman Airport",
        "continent": "AS",
        "type": "airport",
        "lat": "37.75",
        "size": "medium"
    },
    {
        "iata": "MQM",
        "lon": "40.6317",
        "iso": "TR",
        "status": 1,
        "name": "Mardin Airport",
        "continent": "AS",
        "type": "airport",
        "lat": "37.2233",
        "size": "medium"
    },
    {
        "iata": "GNY",
        "lon": "38.846943",
        "iso": "TR",
        "status": 1,
        "name": "?anl?urfa GAP Airport",
        "continent": "AS",
        "type": "airport",
        "lat": "37.094166",
        "size": "medium"
    },
    {
        "iata": "HTY",
        "lon": "36.28057",
        "iso": "TR",
        "status": 1,
        "name": "Hatay Airport",
        "continent": "AS",
        "type": "airport",
        "lat": "36.364544",
        "size": "medium"
    },
    {
        "iata": "ISE",
        "lon": "30.382221",
        "iso": "TR",
        "status": 1,
        "name": null,
        "continent": "AS",
        "type": "airport",
        "lat": "37.86611",
        "size": "large"
    },
    {
        "iata": "EDO",
        "lon": "27.033333",
        "iso": "TR",
        "status": 1,
        "name": null,
        "continent": "AS",
        "type": "airport",
        "lat": "39.583332",
        "size": "medium"
    },
    {
        "iata": "BJV",
        "lon": "27.672781",
        "iso": "TR",
        "status": 1,
        "name": "Milas Bodrum International Airport",
        "continent": "AS",
        "type": "airport",
        "lat": "37.243954",
        "size": "large"
    },
    {
        "iata": "SZF",
        "lon": "36.555058",
        "iso": "TR",
        "status": 1,
        "name": null,
        "continent": "AS",
        "type": "airport",
        "lat": "41.25738",
        "size": "medium"
    },
    {
        "iata": "SAW",
        "lon": "29.309189",
        "iso": "TR",
        "status": 1,
        "name": null,
        "continent": "AS",
        "type": "airport",
        "lat": "40.904675",
        "size": "large"
    },
    {
        "iata": "GZP",
        "lon": "32.3014",
        "iso": "TR",
        "status": 1,
        "name": "Gazipa?a Airport",
        "continent": "AS",
        "type": "airport",
        "lat": "36.2993",
        "size": "medium"
    },
    {
        "iata": "BZY",
        "lon": "27.933332",
        "iso": "MD",
        "status": 1,
        "name": "Balti International Airport",
        "continent": "EU",
        "type": "airport",
        "lat": "47.75",
        "size": "medium"
    },
    {
        "iata": "KIV",
        "lon": "28.934967",
        "iso": "MD",
        "status": 1,
        "name": "Chi?in?u International Airport",
        "continent": "EU",
        "type": "airport",
        "lat": "46.935444",
        "size": "medium"
    },
    {
        "iata": "GZA",
        "iso": "PS",
        "status": 0,
        "name": "Yasser Arafat International Airport",
        "continent": "AS",
        "type": "closed",
        "size": null
    },
    {
        "iata": "OHD",
        "lon": "20.743055",
        "iso": "MK",
        "status": 1,
        "name": "Ohrid St. Paul the Apostle Airport",
        "continent": "EU",
        "type": "airport",
        "lat": "41.185",
        "size": "medium"
    },
    {
        "iata": "SKP",
        "lon": "21.62872",
        "iso": "MK",
        "status": 1,
        "name": "Skopje Alexander the Great Airport",
        "continent": "EU",
        "type": "airport",
        "lat": "41.95649",
        "size": "medium"
    },
    {
        "iata": "GIB",
        "lon": "-5.349271",
        "iso": "GI",
        "status": 1,
        "name": "Gibraltar Airport",
        "continent": "EU",
        "type": "airport",
        "lat": "36.153763",
        "size": "medium"
    },
    {
        "iata": "BCQ",
        "lon": "14.216667",
        "iso": "LY",
        "status": 1,
        "name": "Brack Airport",
        "continent": "AF",
        "type": "airport",
        "lat": "27.683332",
        "size": "medium"
    },
    {
        "iata": "DNF",
        "lon": "22.766666",
        "iso": "LY",
        "status": 1,
        "name": "Martubah Airport",
        "continent": "AF",
        "type": "airport",
        "lat": "32.55",
        "size": "small"
    },
    {
        "iata": "MRA",
        "lon": "15.066667",
        "iso": "LY",
        "status": 1,
        "name": "Misratah Airport",
        "continent": "AF",
        "type": "airport",
        "lat": "32.4",
        "size": "small"
    },
    {
        "iata": "QUB",
        "lon": "12.820452",
        "iso": "LY",
        "status": 1,
        "name": "Ubari Airport",
        "continent": "AF",
        "type": "airport",
        "lat": "26.568268",
        "size": "small"
    },
    {
        "iata": "UZC",
        "lon": "19.697403",
        "iso": "RS",
        "status": 1,
        "name": "Ponikve Airport",
        "continent": "EU",
        "type": "airport",
        "lat": "43.898834",
        "size": "small"
    },
    {
        "iata": "BEG",
        "lon": "20.306944",
        "iso": "RS",
        "status": 1,
        "name": "Belgrade Nikola Tesla Airport",
        "continent": "EU",
        "type": "airport",
        "lat": "44.819443",
        "size": "large"
    },
    {
        "iata": "LJB",
        "iso": "RS",
        "status": 1,
        "name": "Airport Lisicji Jarak",
        "continent": "EU",
        "type": "airport",
        "size": "small"
    },
    {
        "iata": "IVG",
        "lon": "19.862028",
        "iso": "ME",
        "status": 1,
        "name": "Berane Airport",
        "continent": "EU",
        "type": "airport",
        "lat": "42.839027",
        "size": "small"
    },
    {
        "iata": "BJY",
        "lon": "20.2575",
        "iso": "RS",
        "status": 1,
        "name": "Batajnica Air Base",
        "continent": "EU",
        "type": "airport",
        "lat": "44.93528",
        "size": "medium"
    },
    {
        "iata": "GJA",
        "lon": "-85.90583",
        "iso": "KS",
        "status": 1,
        "name": "?akovica Airfield",
        "continent": "EU",
        "type": "airport",
        "lat": "16.445",
        "size": "medium"
    },
    {
        "iata": "KID",
        "lon": "14.088889",
        "iso": "RS",
        "status": 1,
        "name": "Airport Drakslerov salas Kikinda",
        "continent": "EU",
        "type": "airport",
        "lat": "55.919445",
        "size": "small"
    },
    {
        "iata": "INI",
        "lon": "21.851667",
        "iso": "RS",
        "status": 1,
        "name": "Nis Airport",
        "continent": "EU",
        "type": "airport",
        "lat": "43.33389",
        "size": "medium"
    },
    {
        "iata": "QND",
        "iso": "RS",
        "status": 1,
        "name": "Cenej Airport",
        "continent": "EU",
        "type": "airport",
        "size": "small"
    },
    {
        "iata": "TGD",
        "lon": "19.246023",
        "iso": "ME",
        "status": 1,
        "name": "Podgorica Airport",
        "continent": "EU",
        "type": "airport",
        "lat": "42.368023",
        "size": "large"
    },
    {
        "iata": "TIV",
        "lon": "18.725555",
        "iso": "ME",
        "status": 1,
        "name": "Tivat Airport",
        "continent": "EU",
        "type": "airport",
        "lat": "42.40361",
        "size": "medium"
    },
    {
        "iata": "BTS",
        "lon": "17.199799",
        "iso": "SK",
        "status": 1,
        "name": null,
        "continent": "EU",
        "type": "airport",
        "lat": "48.170017",
        "size": "large"
    },
    {
        "iata": "KSC",
        "lon": "21.25",
        "iso": "SK",
        "status": 1,
        "name": null,
        "continent": "EU",
        "type": "airport",
        "lat": "48.666668",
        "size": "medium"
    },
    {
        "iata": "LUE",
        "lon": "19.666668",
        "iso": "SK",
        "status": 1,
        "name": "Lu?enec Airport",
        "continent": "EU",
        "type": "airport",
        "lat": "48.333332",
        "size": "small"
    },
    {
        "iata": "PZY",
        "lon": "17.833332",
        "iso": "SK",
        "status": 1,
        "name": null,
        "continent": "EU",
        "type": "airport",
        "lat": "48.63333",
        "size": "medium"
    },
    {
        "iata": "POV",
        "lon": "21.25",
        "iso": "SK",
        "status": 1,
        "name": null,
        "continent": "EU",
        "type": "airport",
        "lat": "49.0",
        "size": "small"
    },
    {
        "iata": "SLD",
        "lon": "19.133333",
        "iso": "SK",
        "status": 1,
        "name": "Slia? Airport",
        "continent": "EU",
        "type": "airport",
        "lat": "48.63333",
        "size": "medium"
    },
    {
        "iata": "ILZ",
        "lon": "18.766666",
        "iso": "SK",
        "status": 1,
        "name": null,
        "continent": "EU",
        "type": "airport",
        "lat": "49.233334",
        "size": "medium"
    },
    {
        "iata": "GLN",
        "lon": "-10.066667",
        "iso": "MA",
        "status": 1,
        "name": "Goulimime Airport",
        "continent": "AF",
        "type": "airport",
        "lat": "29.016666",
        "size": "small"
    },
    {
        "iata": "GDT",
        "lon": "-71.13333",
        "iso": "TC",
        "status": 1,
        "name": "JAGS McCartney International Airport",
        "continent": "NA",
        "type": "airport",
        "lat": "21.466667",
        "size": "medium"
    },
    {
        "iata": "MDS",
        "lon": "-71.71667",
        "iso": "TC",
        "status": 1,
        "name": "Middle Caicos Airport",
        "continent": "NA",
        "type": "airport",
        "lat": "21.783333",
        "size": "small"
    },
    {
        "iata": "NCA",
        "lon": "-71.98333",
        "iso": "TC",
        "status": 1,
        "name": "North Caicos Airport",
        "continent": "NA",
        "type": "airport",
        "lat": "21.933332",
        "size": "medium"
    },
    {
        "iata": "PIC",
        "lon": "-72.1",
        "iso": "TC",
        "status": 1,
        "name": "Pine Cay Airport",
        "continent": "NA",
        "type": "airport",
        "lat": "21.883333",
        "size": "small"
    },
    {
        "iata": "PLS",
        "lon": "-72.26833",
        "iso": "TC",
        "status": 1,
        "name": "Providenciales Airport",
        "continent": "NA",
        "type": "airport",
        "lat": "21.769167",
        "size": "medium"
    },
    {
        "iata": "XSC",
        "lon": "-71.529724",
        "iso": "TC",
        "status": 1,
        "name": "South Caicos Airport",
        "continent": "NA",
        "type": "airport",
        "lat": "21.515833",
        "size": "medium"
    },
    {
        "iata": "SLX",
        "lon": "-71.20167",
        "iso": "TC",
        "status": 1,
        "name": "Salt Cay Airport",
        "continent": "NA",
        "type": "airport",
        "lat": "21.333332",
        "size": "small"
    },
    {
        "iata": "EPS",
        "lon": "-69.5",
        "iso": "DO",
        "status": 1,
        "name": "Arroyo Barril International Airport",
        "continent": "NA",
        "type": "airport",
        "lat": "19.25",
        "size": "medium"
    },
    {
        "iata": "BRX",
        "lon": "-71.11667",
        "iso": "DO",
        "status": 1,
        "name": "Maria Montez International Airport",
        "continent": "NA",
        "type": "airport",
        "lat": "18.216667",
        "size": "medium"
    },
    {
        "iata": "CBJ",
        "lon": "-71.65",
        "iso": "DO",
        "status": 1,
        "name": "Cabo Rojo Airport",
        "continent": "NA",
        "type": "airport",
        "lat": "17.933332",
        "size": "medium"
    },
    {
        "iata": "AZS",
        "lon": "-69.736946",
        "iso": "DO",
        "status": 1,
        "name": null,
        "continent": "NA",
        "type": "airport",
        "lat": "19.270555",
        "size": "small"
    },
    {
        "iata": "COZ",
        "lon": "-70.71667",
        "iso": "DO",
        "status": 1,
        "name": "Constanza Dom Re Airport",
        "continent": "NA",
        "type": "airport",
        "lat": "18.9",
        "size": "small"
    },
    {
        "iata": "HEX",
        "iso": "DO",
        "status": 0,
        "name": "Herrera Airport",
        "continent": "NA",
        "type": "closed",
        "size": null
    },
    {
        "iata": "JBQ",
        "lon": "-69.98144",
        "iso": "DO",
        "status": 1,
        "name": "La Isabela International Airport",
        "continent": "NA",
        "type": "airport",
        "lat": "18.575731",
        "size": "medium"
    },
    {
        "iata": "LRM",
        "lon": "-68.9",
        "iso": "DO",
        "status": 1,
        "name": "Casa De Campo International Airport",
        "continent": "NA",
        "type": "airport",
        "lat": "18.416668",
        "size": "medium"
    },
    {
        "iata": "PUJ",
        "lon": "-68.364",
        "iso": "DO",
        "status": 1,
        "name": "Punta Cana International Airport",
        "continent": "NA",
        "type": "airport",
        "lat": "18.562477",
        "size": "medium"
    },
    {
        "iata": "POP",
        "lon": "-70.56315",
        "iso": "DO",
        "status": 1,
        "name": "Gregorio Luperon International Airport",
        "continent": "NA",
        "type": "airport",
        "lat": "19.754942",
        "size": "medium"
    },
    {
        "iata": "MDR",
        "lon": "-154.71666",
        "iso": "US",
        "status": 1,
        "name": "Medfra Airport",
        "continent": "NA",
        "type": "airport",
        "lat": "63.106945",
        "size": "small"
    },
    {
        "iata": "SNX",
        "lon": "-69.4",
        "iso": "DO",
        "status": 1,
        "name": "Sabana de Mar Airport",
        "continent": "NA",
        "type": "airport",
        "lat": "19.116667",
        "size": "small"
    },
    {
        "iata": "SDQ",
        "lon": "-69.67674",
        "iso": "DO",
        "status": 1,
        "name": null,
        "continent": "NA",
        "type": "airport",
        "lat": "18.430124",
        "size": "large"
    },
    {
        "iata": "SJM",
        "iso": "DO",
        "status": 0,
        "name": "San Juan Airport",
        "continent": "NA",
        "type": "closed",
        "size": null
    },
    {
        "iata": "STI",
        "lon": "-70.603355",
        "iso": "DO",
        "status": 1,
        "name": "Cibao International Airport",
        "continent": "NA",
        "type": "airport",
        "lat": "19.404486",
        "size": "medium"
    },
    {
        "iata": "DOA",
        "lon": "49.5",
        "iso": "MG",
        "status": 1,
        "name": "Doany Airport",
        "continent": "AF",
        "type": "airport",
        "lat": "-14.366667",
        "size": "small"
    },
    {
        "iata": "CBV",
        "lon": "-90.409164",
        "iso": "GT",
        "status": 1,
        "name": "Coban Airport",
        "continent": "NA",
        "type": "airport",
        "lat": "15.471667",
        "size": "medium"
    },
    {
        "iata": "CMM",
        "lon": "-90.05333",
        "iso": "GT",
        "status": 1,
        "name": "Carmelita Airport",
        "continent": "NA",
        "type": "airport",
        "lat": "17.458332",
        "size": "small"
    },
    {
        "iata": "CTF",
        "lon": "-91.916664",
        "iso": "GT",
        "status": 1,
        "name": "Coatepeque Airport",
        "continent": "NA",
        "type": "airport",
        "lat": "14.766667",
        "size": "small"
    },
    {
        "iata": "GUA",
        "lon": "-90.53068",
        "iso": "GT",
        "status": 1,
        "name": "La Aurora Airport",
        "continent": "NA",
        "type": "airport",
        "lat": "14.588071",
        "size": "medium"
    },
    {
        "iata": "HUG",
        "lon": "-91.46667",
        "iso": "GT",
        "status": 1,
        "name": "Huehuetenango Airport",
        "continent": "NA",
        "type": "airport",
        "lat": "15.333333",
        "size": "small"
    },
    {
        "iata": "MCR",
        "lon": "-92.00833",
        "iso": "GT",
        "status": 1,
        "name": "Melchor de Mencos Airport",
        "continent": "NA",
        "type": "airport",
        "lat": "17.0",
        "size": "small"
    },
    {
        "iata": "PBR",
        "lon": "-88.60611",
        "iso": "GT",
        "status": 1,
        "name": "Puerto Barrios Airport",
        "continent": "NA",
        "type": "airport",
        "lat": "15.723056",
        "size": "medium"
    },
    {
        "iata": "PON",
        "lon": "-89.433334",
        "iso": "GT",
        "status": 1,
        "name": null,
        "continent": "NA",
        "type": "airport",
        "lat": "16.35",
        "size": "small"
    },
    {
        "iata": "AQB",
        "iso": "GT",
        "status": 1,
        "name": "Santa Cruz del Quiche Airport",
        "continent": "NA",
        "type": "airport",
        "size": "small"
    },
    {
        "iata": "AAZ",
        "iso": "GT",
        "status": 1,
        "name": "Quezaltenango Airport",
        "continent": "NA",
        "type": "airport",
        "size": "small"
    },
    {
        "iata": "RUV",
        "lon": "-90.333336",
        "iso": "GT",
        "status": 1,
        "name": "Rubelsanto Airport",
        "continent": "NA",
        "type": "airport",
        "lat": "15.833333",
        "size": "medium"
    },
    {
        "iata": "RER",
        "lon": "-91.696945",
        "iso": "GT",
        "status": 1,
        "name": "Retalhuleu Airport",
        "continent": "NA",
        "type": "airport",
        "lat": "14.520278",
        "size": "medium"
    },
    {
        "iata": "GSJ",
        "iso": "GT",
        "status": 1,
        "name": null,
        "continent": "NA",
        "type": "airport",
        "size": "medium"
    },
    {
        "iata": "FRS",
        "lon": "-89.88333",
        "iso": "GT",
        "status": 1,
        "name": "Mundo Maya International Airport",
        "continent": "NA",
        "type": "airport",
        "lat": "16.916668",
        "size": "medium"
    },
    {
        "iata": "AIM",
        "lon": "169.98334",
        "iso": "MH",
        "status": 1,
        "name": "Ailuk Airport",
        "continent": "OC",
        "type": "airport",
        "lat": "10.2",
        "size": "small"
    },
    {
        "iata": "AUL",
        "lon": "171.16667",
        "iso": "MH",
        "status": 1,
        "name": "Aur Island Airport",
        "continent": "OC",
        "type": "airport",
        "lat": "8.133333",
        "size": "small"
    },
    {
        "iata": "BII",
        "lon": "165.56512",
        "iso": "MH",
        "status": 1,
        "name": "Enyu Airfield",
        "continent": "OC",
        "type": "airport",
        "lat": "11.525081",
        "size": "small"
    },
    {
        "iata": "EBN",
        "lon": "166.8",
        "iso": "MH",
        "status": 1,
        "name": "Ebadon Airport",
        "continent": "OC",
        "type": "airport",
        "lat": "9.333333",
        "size": "small"
    },
    {
        "iata": "JAT",
        "lon": "168.96666",
        "iso": "MH",
        "status": 1,
        "name": "Jabot Airport",
        "continent": "OC",
        "type": "airport",
        "lat": "7.75",
        "size": "small"
    },
    {
        "iata": "JEJ",
        "lon": "168.96513",
        "iso": "MH",
        "status": 1,
        "name": "Jeh Airport",
        "continent": "OC",
        "type": "airport",
        "lat": "7.569916",
        "size": "small"
    },
    {
        "iata": "KBT",
        "lon": "170.91667",
        "iso": "MH",
        "status": 1,
        "name": "Kaben Airport",
        "continent": "OC",
        "type": "airport",
        "lat": "9.166667",
        "size": "small"
    },
    {
        "iata": "LIK",
        "lon": "169.31667",
        "iso": "MH",
        "status": 1,
        "name": "Likiep Airport",
        "continent": "OC",
        "type": "airport",
        "lat": "9.816667",
        "size": "small"
    },
    {
        "iata": "LML",
        "lon": "166.25",
        "iso": "MH",
        "status": 1,
        "name": "Lae Island Airport",
        "continent": "OC",
        "type": "airport",
        "lat": "8.916667",
        "size": "small"
    },
    {
        "iata": "MAV",
        "lon": "171.1",
        "iso": "MH",
        "status": 1,
        "name": "Maloelap Island Airport",
        "continent": "OC",
        "type": "airport",
        "lat": "8.75",
        "size": "small"
    },
    {
        "iata": "MJB",
        "lon": "170.88333",
        "iso": "MH",
        "status": 1,
        "name": "Mejit Atoll Airport",
        "continent": "OC",
        "type": "airport",
        "lat": "10.283333",
        "size": "small"
    },
    {
        "iata": "MJE",
        "lon": "170.0",
        "iso": "MH",
        "status": 1,
        "name": "Majkin Airport",
        "continent": "OC",
        "type": "airport",
        "lat": "9.0",
        "size": "small"
    },
    {
        "iata": "NDK",
        "lon": "168.11667",
        "iso": "MH",
        "status": 1,
        "name": "Namorik Atoll Airport",
        "continent": "OC",
        "type": "airport",
        "lat": "5.633333",
        "size": "small"
    },
    {
        "iata": "RNP",
        "lon": "166.88333",
        "iso": "MH",
        "status": 1,
        "name": "Rongelap Island Airport",
        "continent": "OC",
        "type": "airport",
        "lat": "11.15",
        "size": "small"
    },
    {
        "iata": "TIC",
        "lon": "171.78334",
        "iso": "MH",
        "status": 1,
        "name": "Tinak Airport",
        "continent": "OC",
        "type": "airport",
        "lat": "7.05",
        "size": "small"
    }

]
