[
    {
        "iata": "PVG",
        "lon": "121.799805",
        "iso": "CN",
        "status": 1,
        "name": "Shanghai Pudong International Airport",
        "continent": "AS",
        "type": "airport",
        "lat": "31.151825",
        "size": "large"
    },
    {
        "iata": "TAO",
        "lon": "120.38236",
        "iso": "CN",
        "status": 1,
        "name": "Liuting Airport",
        "continent": "AS",
        "type": "airport",
        "lat": "36.265884",
        "size": "medium"
    },
    {
        "iata": "JJN",
        "lon": "118.587296",
        "iso": "CN",
        "status": 1,
        "name": "Quanzhou Airport",
        "continent": "AS",
        "type": "airport",
        "lat": "24.802809",
        "size": "medium"
    },
    {
        "iata": "RUG",
        "lon": "120.555275",
        "iso": "CN",
        "status": 1,
        "name": "Rugao Air Base",
        "continent": "AS",
        "type": "airport",
        "lat": "32.388332",
        "size": "medium"
    },
    {
        "iata": "SHA",
        "lon": "121.34197",
        "iso": "CN",
        "status": 1,
        "name": "Shanghai Hongqiao International Airport",
        "continent": "AS",
        "type": "airport",
        "lat": "31.196815",
        "size": "large"
    },
    {
        "iata": "SZV",
        "lon": "120.63333",
        "iso": "CN",
        "status": 1,
        "name": "Guangfu Airport",
        "continent": "AS",
        "type": "airport",
        "lat": "31.3",
        "size": "medium"
    },
    {
        "iata": "TXN",
        "lon": "118.25646",
        "iso": "CN",
        "status": 1,
        "name": "Tunxi International Airport",
        "continent": "AS",
        "type": "airport",
        "lat": "29.72962",
        "size": "medium"
    },
    {
        "iata": "WEF",
        "lon": "119.11347",
        "iso": "CN",
        "status": 1,
        "name": "Weifang Airport",
        "continent": "AS",
        "type": "airport",
        "lat": "36.641075",
        "size": "medium"
    },
    {
        "iata": "WEH",
        "lon": "122.23607",
        "iso": "CN",
        "status": 1,
        "name": "Weihai Airport",
        "continent": "AS",
        "type": "airport",
        "lat": "37.18814",
        "size": "medium"
    },
    {
        "iata": "WHU",
        "lon": "118.36667",
        "iso": "CN",
        "status": 1,
        "name": "Wuhu Air Base",
        "continent": "AS",
        "type": "airport",
        "lat": "31.366667",
        "size": "medium"
    },
    {
        "iata": "WUX",
        "lon": "120.42438",
        "iso": "CN",
        "status": 1,
        "name": "Sunan Shuofang International Airport",
        "continent": "AS",
        "type": "airport",
        "lat": "31.49289",
        "size": "medium"
    },
    {
        "iata": "WUS",
        "lon": "117.96667",
        "iso": "CN",
        "status": 1,
        "name": "Nanping Wuyishan Airport",
        "continent": "AS",
        "type": "airport",
        "lat": "27.716667",
        "size": "medium"
    },
    {
        "iata": "WNZ",
        "lon": "120.84738",
        "iso": "CN",
        "status": 1,
        "name": "Wenzhou Yongqiang Airport",
        "continent": "AS",
        "type": "airport",
        "lat": "27.91566",
        "size": "large"
    },
    {
        "iata": "XUZ",
        "lon": "117.55408",
        "iso": "CN",
        "status": 1,
        "name": "Xuzhou Guanyin Airport",
        "continent": "AS",
        "type": "airport",
        "lat": "34.052925",
        "size": "medium"
    },
    {
        "iata": "YNZ",
        "lon": "120.20418",
        "iso": "CN",
        "status": 1,
        "name": "Yancheng Airport",
        "continent": "AS",
        "type": "airport",
        "lat": "33.43468",
        "size": "small"
    },
    {
        "iata": "YNT",
        "lon": "121.3711",
        "iso": "CN",
        "status": 1,
        "name": "Yantai Laishan Airport",
        "continent": "AS",
        "type": "airport",
        "lat": "37.407326",
        "size": "medium"
    },
    {
        "iata": "YIW",
        "lon": "120.02881",
        "iso": "CN",
        "status": 1,
        "name": "Yiwu Airport",
        "continent": "AS",
        "type": "airport",
        "lat": "29.344563",
        "size": "medium"
    },
    {
        "iata": "HSN",
        "lon": "122.35691",
        "iso": "CN",
        "status": 1,
        "name": "Zhoushan Airport",
        "continent": "AS",
        "type": "airport",
        "lat": "29.935259",
        "size": "small"
    },
    {
        "iata": "NGQ",
        "lon": "80.054276",
        "iso": "CN",
        "status": 1,
        "name": "Ngari Gunsa Airport",
        "continent": "AS",
        "type": "airport",
        "lat": "32.103817",
        "size": "medium"
    },
    {
        "iata": "AVA",
        "lon": "105.87281",
        "iso": "CN",
        "status": 1,
        "name": "Anshun Huangguoshu Airport",
        "continent": "AS",
        "type": "airport",
        "lat": "26.26005",
        "size": "medium"
    },
    {
        "iata": "BPX",
        "lon": "97.10667",
        "iso": "CN",
        "status": 1,
        "name": "Qamdo Bangda Airport",
        "continent": "AS",
        "type": "airport",
        "lat": "30.555834",
        "size": "medium"
    },
    {
        "iata": "CKG",
        "lon": "106.63408",
        "iso": "CN",
        "status": 1,
        "name": "Chongqing Jiangbei International Airport",
        "continent": "AS",
        "type": "airport",
        "lat": "29.72034",
        "size": "large"
    },
    {
        "iata": "DAX",
        "lon": "107.42689",
        "iso": "CN",
        "status": 1,
        "name": "Dachuan Airport",
        "continent": "AS",
        "type": "airport",
        "lat": "31.135012",
        "size": "small"
    },
    {
        "iata": "GYS",
        "lon": "105.69972",
        "iso": "CN",
        "status": 1,
        "name": "Guangyuan Airport",
        "continent": "AS",
        "type": "airport",
        "lat": "32.395",
        "size": "medium"
    },
    {
        "iata": "KWE",
        "lon": "106.79598",
        "iso": "CN",
        "status": 1,
        "name": "Longdongbao Airport",
        "continent": "AS",
        "type": "airport",
        "lat": "26.544216",
        "size": "large"
    },
    {
        "iata": "JZH",
        "lon": "103.68306",
        "iso": "CN",
        "status": 1,
        "name": "Jiuzhai Huanglong Airport",
        "continent": "AS",
        "type": "airport",
        "lat": "32.856667",
        "size": "medium"
    },
    {
        "iata": "LIA",
        "lon": "107.7",
        "iso": "CN",
        "status": 1,
        "name": "Liangping Airport",
        "continent": "AS",
        "type": "airport",
        "lat": "30.816668",
        "size": "small"
    },
    {
        "iata": "LXA",
        "lon": "90.90051",
        "iso": "CN",
        "status": 1,
        "name": "Lhasa Gonggar Airport",
        "continent": "AS",
        "type": "airport",
        "lat": "29.29305",
        "size": "medium"
    },
    {
        "iata": "LZO",
        "lon": "105.37902",
        "iso": "CN",
        "status": 1,
        "name": "Luzhou Airport",
        "continent": "AS",
        "type": "airport",
        "lat": "28.844757",
        "size": "small"
    },
    {
        "iata": "MIG",
        "lon": "104.73805",
        "iso": "CN",
        "status": 1,
        "name": "Mianyang Airport",
        "continent": "AS",
        "type": "airport",
        "lat": "31.43111",
        "size": "medium"
    },
    {
        "iata": "NAO",
        "lon": "106.066666",
        "iso": "CN",
        "status": 1,
        "name": "Nanchong Airport",
        "continent": "AS",
        "type": "airport",
        "lat": "30.8",
        "size": "small"
    },
    {
        "iata": "LZY",
        "lon": "94.335884",
        "iso": "CN",
        "status": 1,
        "name": "Nyingchi Airport",
        "continent": "AS",
        "type": "airport",
        "lat": "29.309076",
        "size": "medium"
    },
    {
        "iata": "TCZ",
        "lon": "98.482025",
        "iso": "CN",
        "status": 1,
        "name": "Tengchong Tuofeng Airport",
        "continent": "AS",
        "type": "airport",
        "lat": "24.939379",
        "size": "medium"
    },
    {
        "iata": "CTU",
        "lon": "103.9568",
        "iso": "CN",
        "status": 1,
        "name": "Chengdu Shuangliu International Airport",
        "continent": "AS",
        "type": "airport",
        "lat": "30.581135",
        "size": "large"
    },
    {
        "iata": "WXN",
        "lon": "108.42695",
        "iso": "CN",
        "status": 1,
        "name": "Wanxian Airport",
        "continent": "AS",
        "type": "airport",
        "lat": "30.799679",
        "size": "small"
    },
    {
        "iata": "XIC",
        "lon": "102.187645",
        "iso": "CN",
        "status": 1,
        "name": "Xichang Qingshan Airport",
        "continent": "AS",
        "type": "airport",
        "lat": "27.981922",
        "size": "medium"
    },
    {
        "iata": "YBP",
        "lon": "104.54395",
        "iso": "CN",
        "status": 1,
        "name": "Yibin Caiba Airport",
        "continent": "AS",
        "type": "airport",
        "lat": "28.797659",
        "size": "small"
    },
    {
        "iata": "ACX",
        "lon": "104.95944",
        "iso": "CN",
        "status": 1,
        "name": "Xingyi Airport",
        "continent": "AS",
        "type": "airport",
        "lat": "25.085556",
        "size": "medium"
    },
    {
        "iata": "AKU",
        "lon": "80.29262",
        "iso": "CN",
        "status": 1,
        "name": "Aksu Airport",
        "continent": "AS",
        "type": "airport",
        "lat": "41.259983",
        "size": "medium"
    },
    {
        "iata": "BPL",
        "lon": "82.024185",
        "iso": "CN",
        "status": 1,
        "name": "Alashankou Bole (Bortala) airport",
        "continent": "AS",
        "type": "airport",
        "lat": "44.904232",
        "size": "medium"
    },
    {
        "iata": "IQM",
        "lon": "85.53333",
        "iso": "CN",
        "status": 1,
        "name": "Qiemo Airport",
        "continent": "AS",
        "type": "airport",
        "lat": "38.13333",
        "size": "medium"
    },
    {
        "iata": "HMI",
        "lon": "93.416664",
        "iso": "CN",
        "status": 1,
        "name": "Hami Airport",
        "continent": "AS",
        "type": "airport",
        "lat": "42.916668",
        "size": "medium"
    },
    {
        "iata": "KCA",
        "lon": "83.7",
        "iso": "CN",
        "status": 1,
        "name": "Kuqa Airport",
        "continent": "AS",
        "type": "airport",
        "lat": "41.166668",
        "size": "small"
    },
    {
        "iata": "KRL",
        "lon": "86.12434",
        "iso": "CN",
        "status": 1,
        "name": "Korla Airport",
        "continent": "AS",
        "type": "airport",
        "lat": "41.689896",
        "size": "medium"
    },
    {
        "iata": "KRY",
        "lon": "84.88333",
        "iso": "CN",
        "status": 1,
        "name": "Karamay Airport",
        "continent": "AS",
        "type": "airport",
        "lat": "45.61667",
        "size": "small"
    },
    {
        "iata": "KHG",
        "lon": "76.01107",
        "iso": "CN",
        "status": 1,
        "name": "Kashgar Airport",
        "continent": "AS",
        "type": "airport",
        "lat": "39.534973",
        "size": "medium"
    },
    {
        "iata": "SXJ",
        "lon": "90.23333",
        "iso": "CN",
        "status": 1,
        "name": "Shanshan Airport",
        "continent": "AS",
        "type": "airport",
        "lat": "42.816666",
        "size": "medium"
    },
    {
        "iata": "TCG",
        "lon": "83.333336",
        "iso": "CN",
        "status": 1,
        "name": "Tacheng Airport",
        "continent": "AS",
        "type": "airport",
        "lat": "46.666668",
        "size": "small"
    },
    {
        "iata": "HTN",
        "lon": "79.87245",
        "iso": "CN",
        "status": 1,
        "name": "Hotan Airport",
        "continent": "AS",
        "type": "airport",
        "lat": "37.040436",
        "size": "medium"
    },
    {
        "iata": "URC",
        "lon": "87.47515",
        "iso": "CN",
        "status": 1,
        "name": "sull",
        "continent": "AS",
        "type": "airport",
        "lat": "43.90126",
        "size": "large"
    },
    {
        "iata": "YIN",
        "lon": "81.33144",
        "iso": "CN",
        "status": 1,
        "name": "Yining Airport",
        "continent": "AS",
        "type": "airport",
        "lat": "43.952",
        "size": "small"
    },
    {
        "iata": "AOG",
        "lon": "123.857834",
        "iso": "CN",
        "status": 1,
        "name": "Anshan Air Base",
        "continent": "AS",
        "type": "airport",
        "lat": "41.103523",
        "size": "medium"
    },
    {
        "iata": "CGQ",
        "lon": "125.217545",
        "iso": "CN",
        "status": 1,
        "name": "Longjia Airport",
        "continent": "AS",
        "type": "airport",
        "lat": "43.902836",
        "size": "medium"
    },
    {
        "iata": "CNI",
        "lon": "121.433334",
        "iso": "CN",
        "status": 1,
        "name": "Changhai Airport",
        "continent": "AS",
        "type": "airport",
        "lat": "31.25",
        "size": "medium"
    },
    {
        "iata": "CHG",
        "lon": "120.4372",
        "iso": "CN",
        "status": 1,
        "name": "Chaoyang Airport",
        "continent": "AS",
        "type": "airport",
        "lat": "41.545082",
        "size": "medium"
    },
    {
        "iata": "HRB",
        "lon": "126.23644",
        "iso": "CN",
        "status": 1,
        "name": "Taiping Airport",
        "continent": "AS",
        "type": "airport",
        "lat": "45.620853",
        "size": "large"
    },
    {
        "iata": "HEK",
        "lon": "127.433334",
        "iso": "CN",
        "status": 1,
        "name": "Heihe Airport",
        "continent": "AS",
        "type": "airport",
        "lat": "50.216667",
        "size": "medium"
    },
    {
        "iata": "JIL",
        "lon": "126.65",
        "iso": "CN",
        "status": 1,
        "name": "Jilin Airport",
        "continent": "AS",
        "type": "airport",
        "lat": "43.86667",
        "size": "small"
    },
    {
        "iata": "JMU",
        "lon": "130.45541",
        "iso": "CN",
        "status": 1,
        "name": "Jiamusi Airport",
        "continent": "AS",
        "type": "airport",
        "lat": "46.845394",
        "size": "medium"
    },
    {
        "iata": "JNZ",
        "lon": "121.01667",
        "iso": "CN",
        "status": 1,
        "name": "Jinzhou Airport",
        "continent": "AS",
        "type": "airport",
        "lat": "41.11667",
        "size": "medium"
    },
    {
        "iata": "YUS",
        "lon": "97.03748",
        "iso": "CN",
        "status": 1,
        "name": "Yushu Batang Airport",
        "continent": "AS",
        "type": "airport",
        "lat": "32.837975",
        "size": "medium"
    },
    {
        "iata": "MDG",
        "lon": "129.58385",
        "iso": "CN",
        "status": 1,
        "name": "Mudanjiang Hailang International Airport",
        "continent": "AS",
        "type": "airport",
        "lat": "44.534943",
        "size": "medium"
    },
    {
        "iata": "OHE",
        "lon": "122.42059",
        "iso": "CN",
        "status": 1,
        "name": "Gu-Lian Airport",
        "continent": "AS",
        "type": "airport",
        "lat": "52.92113",
        "size": "medium"
    },
    {
        "iata": "NDG",
        "lon": "123.916664",
        "iso": "CN",
        "status": 1,
        "name": "Qiqihar Sanjiazi Airport",
        "continent": "AS",
        "type": "airport",
        "lat": "47.316666",
        "size": "medium"
    },
    {
        "iata": "DLC",
        "lon": "121.53999",
        "iso": "CN",
        "status": 1,
        "name": "Zhoushuizi Airport",
        "continent": "AS",
        "type": "airport",
        "lat": "38.96102",
        "size": "large"
    },
    {
        "iata": "SHE",
        "lon": "123.426926",
        "iso": "CN",
        "status": 1,
        "name": "Taoxian Airport",
        "continent": "AS",
        "type": "airport",
        "lat": "41.861084",
        "size": "large"
    },
    {
        "iata": "YNJ",
        "lon": "129.43936",
        "iso": "CN",
        "status": 1,
        "name": "Yanji Chaoyangchuan Airport",
        "continent": "AS",
        "type": "airport",
        "lat": "42.885662",
        "size": "medium"
    }

]
